id,country,location,name,lat,lng
ADALV,AD,ALV,Andorra la Vella,42.3,1.31
ADCAN,AD,CAN,Canillo,42.34,1.35
ADEAC,AD,EAC,Escàs,42.33,1.31
ADENC,AD,ENC,Encamp,42.32,1.34
ADESC,AD,ESC,Escaldes-Engordany,42.31,1.33
ADFMO,AD,FMO,La Farga de Moles,,
ADLMA,AD,LMA,La Massana,42.34,1.29
ADORD,AD,ORD,Ordino,42.33,1.31
ADPAS,AD,PAS,Pas de la Casa,42.33,1.44
ADSCO,AD,SCO,Santa Coloma,42.3,1.3
ADSJL,AD,SJL,Sant Julià de Lòria,42.28,1.3
AEAAN,AE,AAN,Al Ain,24.22,55.74
AEABU,AE,ABU,Abu al Bukhoosh,25.29,53.08
AEAJM,AE,AJM,Ajman,25.39,55.44
AEAJP,AE,AJP,Al Jeer Port,26.02,56.03
AEALB,AE,ALB,Al Barsha,25.06,55.11
AEALQ,AE,ALQ,Al Quoz,25.07,55.13
AEALS,AE,ALS,Al Sufouh,25.07,55.11
AEAMF,AE,AMF,Mussafah,24.23,54.29
AEAMU,AE,AMU,Abu Musa,25.52,55.01
AEARP,AE,ARP,Ahmed Bin Rashid Port,25.32,55.33
AEARZ,AE,ARZ,Arzanah Island,,
AEAUH,AE,AUH,Abu Dhabi,24.28,54.22
AEDAS,AE,DAS,Das Island,,
AEDBI,AE,DBI,Al Mafraq,24.18,54.36
AEDBP,AE,DBP,Dibba,25.37,56.16
AEDER,AE,DER,Deira,25.16,55.19
AEDHF,AE,DHF,Al Dhafra,24.14,54.32
AEDUJ,AE,DUJ,The Palm Jumeirah,,
AEDUY,AE,DUY,Ras Zubbaya (Ras Dubayyah),,
AEDWC,AE,DWC,Dubai World Central Apt,24.53,55.1
AEDXB,AE,DXB,Dubai,25.15,55.16
AEEND,AE,END,Esnnad,24.19,54.27
AEFAT,AE,FAT,Fateh Terminal,,
AEFJR,AE,FJR,Al Fujayrah,25.07,56.2
AEFMZ,AE,FMZ,Musafa,,
AEFRP,AE,FRP,Free Port,25.15,55.15
AEHAB,AE,HAB,Habshan,23.56,53.38
AEHAM,AE,HAM,Al Hamriyah,25.29,55.3
AEHAT,AE,HAT,Hatta,24.47,56.07
AEHIL,AE,HIL,Hail,35,33.3
AEHTL,AE,HTL,Hulaylah Terminal,25.59,55.56
AEHZP,AE,HZP,Hamriya Free Zone Port,25.18,55.19
AEIND,AE,IND,Indooroodilly,,
AEJAZ,AE,JAZ,Al Jazeera Port,25.43,55.48
AEJEA,AE,JEA,Jebel Ali,24.95,55.1
AEJED,AE,JED,Jebel Dhanna,,
AEJYH,AE,JYH,Jumayrah,25.1,55.13
AEKHA,AE,KHA,Khalidia,,
AEKHL,AE,KHL,Mina Khalifa/Abu Dhabi,24.5,54.4
AEKLB,AE,KLB,Kalba,25.04,56.21
AEKLF,AE,KLF,Khor al Fakkan,25.2,56.21
AEMAS,AE,MAS,Masfut,24.83,56.04
AEMBS,AE,MBS,Mubarras Island,,
AEMKH,AE,MKH,Mina Khalid,25.21,55.22
AEMRP,AE,MRP,Mina Rashid Port,25.16,55.17
AEMSA,AE,MSA,Mina Saqr,,
AEMUB,AE,MUB,Mubarek Terminal,,
AEMZD,AE,MZD,Mina Zayed/Abu Dhabi,24.31,54.22
AENHD,AE,NHD,Minhad,,
AEOFJ,AE,OFJ,Offshore Fujairah,25.15,56.4
AEPRA,AE,PRA,Port Rashid,,
AEQIW,AE,QIW,Umm al Qaiwain,25.34,55.33
AEQWE,AE,QWE,Jebel Ali Free Zone,25,55.03
AERAK,AE,RAK,Ras Al Khor,25.17,55.34
AEREI,AE,REI,Reem Island,24.29,54.24
AERFA,AE,RFA,Mirfa,25.28,53.29
AERKP,AE,RKP,Rak Khor Port,25.49,55.57
AERKT,AE,RKT,Ras al Khaimah,25.47,55.57
AERMC,AE,RMC,Rak Maritime City,25.57,56.03
AERUW,AE,RUW,Ar Ruways,24.07,52.44
AERWP,AE,RWP,Ruwais Port,24.06,52.43
AESHJ,AE,SHJ,Sharjah,25.21,55.23
AESID,AE,SID,Sadiyat Island,24.32,54.24
AESIL,AE,SIL,Sila,24.04,51.45
AESRT,AE,SRT,Steven Rock Terminal,25.58,56.03
AESWE,AE,SWE,Swaihan,24.27,55.2
AEULR,AE,ULR,Umm Al Nar,24.26,54.3
AEVHT,AE,VHT,Vopak Horizion Terminal,25.37,56.16
AEYAS,AE,YAS,Yas Island,24.19,52.36
AEZUR,AE,ZUR,Zirku Island,24.53,53.04
AFASH,AF,ASH,Ali Shirzayi,32.52,66.03
AFBAG,AF,BAG,Bagram,34.57,69.15
AFBEP,AF,BEP,Bazar-E-Panjwai,31.33,65.27
AFBIN,AF,BIN,Bamian,34.82,67.83
AFBST,AF,BST,Bost,31.58,64.36
AFCBN,AF,CBN,Camp Bastion,31.51,64.13
AFCCN,AF,CCN,Chaghcharan,34.31,65.15
AFCDW,AF,CDW,Camp Dwyer,31.07,64.11
AFCLN,AF,CLN,Camp Leatherneck,31.53,64.11
AFCSO,AF,CSO,Camp Salerno,33.24,70.04
AFCWO,AF,CWO,Camp Wolverine,32.04,67.12
AFDAZ,AF,DAZ,Darwaz,38.4,70.81
AFDHD,AF,DHD,Dehdadi,36.39,66.59
AFFAH,AF,FAH,Farah,32.37,62.11
AFFBD,AF,FBD,Faizabad,37.11,70.57
AFFRO,AF,FRO,FOB Frontenac,31.37,65.39
AFGAR,AF,GAR,Gardiz,33.35,69.13
AFGRG,AF,GRG,Gardez,33.6,69.22
AFGZI,AF,GZI,Ghazni,33.54,68.41
AFHEA,AF,HEA,Herat,34.35,62.21
AFHRT,AF,HRT,Hairatan,37.22,67.42
AFIMZ,AF,IMZ,Nimroz,,
AFISQ,AF,ISQ,Eslam Qal'eh,34.4,61.04
AFJAA,AF,JAA,Jalalabad,34.43,70.46
AFKBL,AF,KBL,Kabul,34.52,69.17
AFKDH,AF,KDH,Kandahar,31.62,65.71
AFKHO,AF,KHO,Khowst,35.12,70.5
AFKHT,AF,KHT,Khost,33.33,69.92
AFKMU,AF,KMU,Kamu,35.24,71.25
AFKUR,AF,KUR,Kuran-O-Munjan,,
AFKWH,AF,KWH,Khwahan,37.88,70.21
AFKWT,AF,KWT,Khowst,33.2,69.55
AFLAG,AF,LAG,Lashkar Gah,31.35,64.21
AFLQN,AF,LQN,Qala Nau,33.8,68.93
AFMAS,AF,MAS,Mashad,,
AFMEH,AF,MEH,Mehtar Lam,34.4,70.12
AFMEY,AF,MEY,Meydan,36.54,66.55
AFMMZ,AF,MMZ,Maimana,35.92,64.78
AFMWD,AF,MWD,Maiwand,31.44,65.08
AFMZR,AF,MZR,Mazar-i-Sharif,36.42,67.06
AFORG,AF,ORG,Orgun-E Kalan,32.54,69.13
AFPEC,AF,PEC,Pol-e Charkhi,34.32,69.2
AFPSD,AF,PSD,Pasaband,33.41,64.51
AFQAM,AF,QAM,Qasim,35.02,71.32
AFQLT,AF,QLT,Qalat,32.06,66.53
AFQYN,AF,QYN,Qal'Eh-Ye Now,34.59,63.07
AFRKH,AF,RKH,Torkham,34.53,71.55
AFRMD,AF,RMD,FOB Ramrod,31.45,65.07
AFSBF,AF,SBF,Sardeh Band,,
AFSBK,AF,SBK,Spin Boldak,31,66.24
AFSDD,AF,SDD,Shindand,33.18,62.08
AFSGA,AF,SGA,Sheghnan,37.55,71.48
AFSHE,AF,SHE,Sherhan-Bandar,37.12,69.05
AFSHK,AF,SHK,FOB Shank,34,69.17
AFSRO,AF,SRO,Sharona,33.13,68.83
AFTGH,AF,TGH,Torghundi,35.24,62.28
AFTII,AF,TII,Tirinkot,,
AFTKO,AF,TKO,Tarin Kowt,32.37,65.52
AFTOW,AF,TOW,Towraghondi,35.15,62.17
AFTQN,AF,TQN,Taluqan,36.73,69.53
AFUND,AF,UND,Kunduz,36.71,68.86
AFURN,AF,URN,Urgoon,,
AFURZ,AF,URZ,Uruzgan,,
AFZAJ,AF,ZAJ,Zaranj,30.95,61.85
AFZHA,AF,ZHA,Zhari Dasht,31.38,65.31
AGANU,AG,ANU,Antigua,17.11,-61.84
AGBBQ,AG,BBQ,Barbuda,17.11,-61.84
AGFAM,AG,FAM,Falmouth,17.01,-61.47
AGPHM,AG,PHM,Parham,17.05,-61.45
AGSJO,AG,SJO,Saint John's,17.07,-61.51
AIAXA,AI,AXA,Anguilla,,
AIBLP,AI,BLP,Blowing Point,18.17,-63.09
AICRH,AI,CRH,Crocus Hill,18.13,-63.04
AIFOR,AI,FOR,The Forest,,
AIMBB,AI,MBB,Meads Bay Beach,18.1,-63.08
AIRBY,AI,RBY,Road Bay,,
AIROA,AI,ROA,The Road,,
AISOM,AI,SOM,Sombrero,18.36,-63.28
AIVAL,AI,VAL,The Valley,18.13,-63.03
AIWLL,AI,WLL,Wall Blake,,
ALARG,AL,ARG,Argyrokastro,40.07,20.13
ALBQE,AL,BQE,Bulqizë,41.29,20.13
ALBRT,AL,BRT,Berat,40.43,19.57
ALBUT,AL,BUT,Butrint,39.45,20.01
ALDRZ,AL,DRZ,Durrës,41.31,19.44
ALFIE,AL,FIE,Fier,40.44,19.34
ALFUS,AL,FUS,Fushe Arrez,42.03,20.01
ALGOK,AL,GOK,Gjirokastër,40.05,20.09
ALHMR,AL,HMR,Himare,40.08,19.43
ALKKU,AL,KKU,Kukës,42.05,20.25
ALKRC,AL,KRC,Korçë,40.37,20.46
ALLUS,AL,LUS,Lushnjë,40.56,19.42
ALLZE,AL,LZE,Lezhe,41.47,19.38
ALMBR,AL,MBR,Mbreshtan,40.42,19.52
ALMIL,AL,MIL,Milot,41.4,19.43
ALNPP,AL,NPP,Elbasan,41.06,20.04
ALSAR,AL,SAR,Sarandë,39.53,20
ALSHG,AL,SHG,Shëngjin,41.48,19.34
ALSHK,AL,SHK,Shkoder,42.04,19.31
ALSHZ,AL,SHZ,Shkozet,41.62,19.34
ALTEN,AL,TEN,Tenes,,
ALTIA,AL,TIA,Tirana,41.32,19.81
ALVOA,AL,VOA,Vlorë,40.28,19.29
ALVOR,AL,VOR,Vore,41.23,19.39
AMA3A,AM,A3A,Aparan,40.35,44.21
AMABO,AM,ABO,Abovyan,40.16,44.47
AMAHU,AM,AHU,Akhuryan,40.77,43.89
AMARA,AM,ARA,Ararat,39.5,44.41
AMARG,AM,ARG,Aragatsotn,40.15,44.1
AMARM,AM,ARM,Masis,40.01,44.29
AMARV,AM,ARV,Armavir,40.09,44.01
AMASH,AM,ASH,Ashtarak,40.18,44.21
AMBRD,AM,BRD,Berd,40.52,45.23
AMBYU,AM,BYU,Byureghavan,40.18,44.35
AMDIL,AM,DIL,Dilijan,40.44,44.52
AMEVN,AM,EVN,Yerevan,40.11,44.31
AMEZN,AM,EZN,Ecmiadzin,40.09,44.17
AMGRS,AM,GRS,Goris,39.3,46.2
AMJER,AM,JER,Jermuk,39.83,45.67
AMKJN,AM,KJN,Kajaran,39.09,46.09
AMKPN,AM,KPN,Kapan,39.12,46.24
AMLWN,AM,LWN,Gyumri,40.48,43.5
AMRN4,AM,RN4,Rind,39.45,45.1
AMSPI,AM,SPI,Spitak,40.5,44.16
AMVED,AM,VED,Vedi,39.54,44.43
AMVZR,AM,VZR,Vanadzor,40.48,44.28
AOANL,AO,ANL,Andulo,-11.48,16.69
AOARO,AO,ARO,Armada Olombendo FPSO,-6.04,11.21
AOARZ,AO,ARZ,N'Zeto,-7.23,12.86
AOAZZ,AO,AZZ,Ambriz,-7.84,13.1
AOBAB,AO,BAB,Baba,-14.5,12.14
AOBDD,AO,BDD,Barra do Dande,-8.47,13.36
AOBDT,AO,BDT,Baía dos Tigres,-16.36,11.44
AOBEL,AO,BEL,Belas,-8.55,13.1
AOBUG,AO,BUG,Benguela,-12.57,13.4
AOCAB,AO,CAB,Cabinda,-5.55,12.19
AOCAV,AO,CAV,Cazombo,-11.89,22.9
AOCBT,AO,CBT,Catumbela,-12.43,13.54
AOCEO,AO,CEO,Waku Kungo,-11.21,15.07
AOCFF,AO,CFF,Cafunfo,-8.76,18
AOCLV,AO,CLV,CLOV FPSO,-7.27,11.34
AOCNZ,AO,CNZ,Cangamba,-13.69,19.85
AOCPO,AO,CPO,Capulo,-7.59,13.1
AOCTI,AO,CTI,Cuito Cuanavale,-15.16,19.17
AOCUI,AO,CUI,Cuio,-12.59,12.59
AODAL,AO,DAL,Dalia,-7.41,11.47
AODGR,AO,DGR,Dombe Grande,-12.94,13.09
AODRC,AO,DRC,Dirico,-17.98,20.77
AODUE,AO,DUE,Dundo,-7.37,20.83
AOETN,AO,ETN,Essungo Terminal,-6.2,12.1
AOFBY,AO,FBY,Farta Bay,-12.37,13.12
AOFLT,AO,FLT,Futila Terminal,-5.27,12.11
AOGGC,AO,GGC,Lumbala,-12.64,22.58
AOGIM,AO,GIM,Gimboa,-7.32,12.1
AOGIR,AO,GIR,Girassol Terminal,-7.38,11.41
AOGPO,AO,GPO,Greater Plutonio,-7.5,12.07
AOGXG,AO,GXG,Negage,-7.76,15.26
AOJMB,AO,JMB,Jamba,-17.5,22.72
AOKNP,AO,KNP,Capanda,-9.77,15.44
AOKOT,AO,KOT,Kuito Terminal,-5.26,11.29
AOKTI,AO,KTI,Kiame Terminal,,
AOLAA,AO,LAA,Landana (Cacongo),-5.22,12.14
AOLAD,AO,LAD,Luanda,-8.82,13.24
AOLBT,AO,LBT,Lombo Terminal,-6.59,12.21
AOLBZ,AO,LBZ,Lukapa,-8.41,20.74
AOLIE,AO,LIE,Lieura,,
AOLOB,AO,LOB,Lobito,-12.35,13.54
AOLUC,AO,LUC,Lucira,-13.86,12.52
AOLUO,AO,LUO,Luena,-11.77,19.91
AOLZM,AO,LZM,Luzamba,-9.11,18.04
AOMAL,AO,MAL,Malongo,-5.39,12.2
AOMDZ,AO,MDZ,Maquela Do Zombo,-6.04,15.06
AOMEG,AO,MEG,Malange,-8.09,19
AOMLO,AO,MLO,Malembo,-5.37,12.21
AOMOS,AO,MOS,Mocamedes,-15.1,12.09
AOMSZ,AO,MSZ,Namibe,-15.19,12.15
AOMTL,AO,MTL,Matala,-14.44,15.02
AONDD,AO,NDD,Sumbe,-11.2,13.83
AONDF,AO,NDF,N'dalatando,-9.18,14.55
AONGV,AO,NGV,Ondjiva,-17.04,15.44
AONOV,AO,NOV,Huambo,-12.77,15.73
AONQI,AO,NQI,Nóqui,-5.51,13.26
AONRQ,AO,NRQ,N'Riquinha,,
AONTO,AO,NTO,N'Zeto (Ambrizete),-7.16,12.51
AONZA,AO,NZA,Nzagi,-7.69,21.36
AOPAT,AO,PAT,Palanca Terminal,,
AOPAZ,AO,PAZ,Pazflor FPSO,-8.21,12.06
AOPBN,AO,PBN,Porto Amboim,-10.72,13.75
AOPGI,AO,PGI,Chitato,,
AOPLE,AO,PLE,Porto Alexandre (Tombua),-15.8,11.85
AOPSA,AO,PSA,Porto Saco (Portosalazar),-15.08,12.08
AORSN,AO,RSN,River Sao Nicolau,-14.15,12.2
AOSBT,AO,SBT,Saxi Batuque FPSO,-6.19,11.13
AOSDD,AO,SDD,Lubango,-14.91,13.48
AOSOQ,AO,SOQ,Soyo-Quinfuquena Terminal,,
AOSPP,AO,SPP,Menongue,-14.66,17.68
AOSSY,AO,SSY,M'banza Congo,-6.26,14.24
AOSTC,AO,STC,Santa Clara,-7.22,14.44
AOSTL,AO,STL,Sazaire Terminal,-6.05,12.23
AOSVP,AO,SVP,Kuito,-12.38,16.94
AOSZA,AO,SZA,Soyo,-6.13,12.37
AOTAK,AO,TAK,Takula Terminal,,
AOUAL,AO,UAL,Luau,-10.7,22.22
AOUGO,AO,UGO,Uíge,-7.37,15.03
AOVHC,AO,VHC,Saurimo,-9.65,20.39
AOVNA,AO,VNA,Viana,-8.54,13.22
AOVPE,AO,VPE,Ongiva,,
AOXGN,AO,XGN,Xangongo,-16.74,14.97
AQABA,AQ,ABA,Aboa,-73.03,-13.25
AQAMS,AQ,AMS,Amundsen-Scott,-89.59,139.16
AQAPT,AQ,APT,Arturo Prat,-62.3,-59.41
AQARC,AQ,ARC,Arctowski,-62.09,-58.28
AQART,AQ,ART,Artigas,-62.11,-58.54
AQBEL,AQ,BEL,Belgrano II,-77.52,-34.37
AQBHN,AQ,BHN,Bellingshausen,-62.11,-58.57
AQCAS,AQ,CAS,Casey Station,-66.17,110.31
AQCFZ,AQ,CFZ,Comandante Ferraz,-62.05,-58.23
AQCON,AQ,CON,Concordia,-75.06,123.23
AQDAV,AQ,DAV,Davis Station,-68.34,77.58
AQDDU,AQ,DDU,Dumont d'Urville Station,-66.39,140
AQDMF,AQ,DMF,Dome Fuji,-77.19,39.42
AQDRZ,AQ,DRZ,Druzhnaya 4,-69.44,73.42
AQESC,AQ,ESC,Escudero,-62.12,-58.57
AQESP,AQ,ESP,Esperanza,-63.23,-56.59
AQGDC,AQ,GDC,Gabriel de Castilla,-62.59,-60.41
AQGWL,AQ,GWL,Great Wall,-62.13,-58.58
AQHLY,AQ,HLY,Halley,-75.34,-26.32
AQJBS,AQ,JBS,Jang Bogo Station,-74.36,164.12
AQJCP,AQ,JCP,Juan Carlos Primero,-62.39,-60.23
AQJUB,AQ,JUB,Jubany,-62.14,-58.39
AQKHN,AQ,KHN,Kohnen,-75,0.04
AQKSG,AQ,KSG,King Sejong,-62.13,-58.47
AQLAW,AQ,LAW,Law Base,-69.23,76.23
AQMAW,AQ,MAW,Mawson Station,-67.36,62.52
AQMCM,AQ,MCM,McMurdo,-77.5,166.4
AQMIR,AQ,MIR,Mirny,-66.33,93
AQMRB,AQ,MRB,Marambio,-64.14,-56.39
AQMTR,AQ,MTR,Maitri,-70.45,11.44
AQMZU,AQ,MZU,Mario Zucchelli,-74.41,164.07
AQNEU,AQ,NEU,Neumayer,-70.38,-8.15
AQNOV,AQ,NOV,Novolazarevskaya,-70.46,11.51
AQOHG,AQ,OHG,General Bernardo O'higgins,-63.19,-57.54
AQORC,AQ,ORC,Orcadas,-60.44,-44.44
AQPFS,AQ,PFS,Port Foster,-63,-60.34
AQPLM,AQ,PLM,Palmer,-64.46,-64.03
AQPRO,AQ,PRO,Progress,-69.24,76.23
AQROT,AQ,ROT,Rothera,-67.34,-68.07
AQSBA,AQ,SBA,Scott Base,-77.51,166.45
AQSGN,AQ,SGN,Signy,-60.43,-45.36
AQSMT,AQ,SMT,San Martín,-68.07,-67.06
AQSNA,AQ,SNA,SANAE IV,-71.4,-2.49
AQSYW,AQ,SYW,Syowa,-69,39.35
AQTNM,AQ,TNM,Teniente R. Marsh,-62.13,-58.55
AQTOR,AQ,TOR,Tor,-71.53,5.09
AQTRL,AQ,TRL,Troll,-72,2.32
AQVKY,AQ,VKY,Vernadsky,-65.14,-64.15
AQVOS,AQ,VOS,Vostok,-78.28,106.48
AQWSA,AQ,WSA,Wasa,-73.03,-13.25
AQZGN,AQ,ZGN,Zhongshan,-69.22,76.23
ARABA,AR,ABA,Abasto,-34.58,-58.05
ARAC5,AR,AC5,Acheral,-27.07,-65.27
ARACA,AR,ACA,Acaraguá,-27.28,-55.07
ARACF,AR,ACF,Arrecifes,-34.05,-60.07
ARACS,AR,ACS,Acassuso,-34.29,-58.31
ARADC,AR,ADC,Andacollo,-37.11,-70.41
ARADS,AR,ADS,Alderetes,-26.49,-65.08
ARADV,AR,ADV,Del Viso,-34.27,-58.48
ARAEA,AR,AEA,Aldea Escolar,-43.08,-71.33
ARAEP,AR,AEP,Jorge Newbury Apt/Buenos Aires,,
ARAFA,AR,AFA,San Rafael,-34.61,-68.33
ARAGS,AR,AGS,Aguilares,-27.26,-65.37
ARAIM,AR,AIM,Aimogasta,-28.43,-66.49
ARALE,AR,ALE,Almafuerte,-32.12,-64.15
ARALI,AR,ALI,Alberti,-35.02,-60.17
ARALL,AR,ALL,Allen,-38.59,-67.49
ARALN,AR,ALN,Albardón,-31.26,-68.31
ARALO,AR,ALO,Añelo,-38.21,-68.47
ARALS,AR,ALS,Alsina,-33.54,-59.23
ARALZ,AR,ALZ,Alvarez,-33.07,-60.48
ARAMA,AR,AMA,Adelia María,-33.37,-64.02
ARAMG,AR,AMG,Monte Grand,-34.49,-58.28
ARANA,AR,ANA,Añatuya,-28.28,-62.5
ARANC,AR,ANC,Ancón,-35.34,-61.51
ARAND,AR,AND,Andalgalá,-27.36,-66.19
ARANO,AR,ANO,Angaco,-31.13,-68.02
ARAOL,AR,AOL,Paso de los Libres,-29.71,-57.08
ARAPO,AR,APO,Apostoles,-27.55,-55.46
ARAPZ,AR,APZ,Zapala,-38.9,-70.06
ARARG,AR,ARG,Armstrong,-32.46,-61.36
ARARI,AR,ARI,Arias,-33.38,-62.25
ARARN,AR,ARN,Aranguren,-32.14,-60.09
ARARR,AR,ARR,Alto Río Senguerr,-45.02,-70.5
ARASA,AR,ASA,Apolinario Saravia,-24.25,-64.02
ARASL,AR,ASL,Alto de Sierra,-31.31,-68.25
ARASO,AR,ASO,Arroyo Seco,-33.08,-60.26
ARAST,AR,AST,Asturias,-36.1,-61.53
ARATU,AR,ATU,Atucha,-33.98,-59.28
ARAVD,AR,AVD,Acevedo,-33.44,-60.27
ARAVE,AR,AVE,Avellaneda,-34.39,-58.22
ARAVO,AR,AVO,Aristóbulo del Valle,-27.07,-54.55
ARAVR,AR,AVR,Alvear,-33.4,-60.37
ARAVS,AR,AVS,Avellaneda,-29.06,-59.39
ARAYO,AR,AYO,Arroyito,-31.25,-63.03
ARAZU,AR,AZU,Azul,-36.47,-59.52
ARBAD,AR,BAD,Banfield,-34.45,-58.24
ARBAJ,AR,BAJ,Bajo Grande,-30.34,-66.09
ARBAL,AR,BAL,Barreal,-31.38,-69.28
ARBAR,AR,BAR,Baradero,-33.47,-59.31
ARBAS,AR,BAS,Barrancas,-33.6,-68.43
ARBCA,AR,BCA,Balcarce,-37.5,-58.15
ARBDE,AR,BDE,Belén de Escobar,-34.2,-58.49
ARBDR,AR,BDR,Banda del Río Salí,-26.5,-65.1
ARBEA,AR,BEA,Bengolea,-33.02,-63.41
ARBEC,AR,BEC,Beccar,-34.46,-58.54
ARBEL,AR,BEL,Bella Vista,-34.33,-58.41
ARBER,AR,BER,Berazategui,-34.44,-58.15
ARBES,AR,BES,Ballesteros,-32.32,-62.58
ARBGO,AR,BGO,Bragado,-35.07,-60.3
ARBHI,AR,BHI,Bahía Blanca,-38.43,-62.17
ARBHO,AR,BHO,Bajo Hondo,-38.46,-61.54
ARBJR,AR,BJR,Benito Juarez,-37.4,-59.48
ARBMS,AR,BMS,Barrio Marquez de Sobremonte,-31.23,-64.1
ARBOL,AR,BOL,Bombal,-33.27,-61.2
ARBON,AR,BON,Bowen,-35,-67.31
ARBOU,AR,BOU,Boulogne,-34.3,-58.34
ARBQS,AR,BQS,Barranqueras,-27.48,-58.93
ARBRC,AR,BRC,San Carlos de Bariloche,-41.09,-71.18
ARBRD,AR,BRD,Brandsen,-35.1,-58.14
ARBRN,AR,BRN,Bernal,-34.43,-38.15
ARBSB,AR,BSB,Bahia San Blas,-40.33,-62.15
ARBTN,AR,BTN,Barrio Batan,-38,-57.42
ARBUE,AR,BUE,Buenos Aires,-34.35,-58.4
ARBUI,AR,BUI,Ingeniero Buitrago,-33.21,-60.08
ARBUR,AR,BUR,Burzaco,-34.49,-34.49
ARBUU,AR,BUU,Burruyacú,-26.3,-64.45
ARBVA,AR,BVA,Bella Vista,-27.02,-65.18
ARBVC,AR,BVC,Bella Vista,-28.3,-59.03
ARBVL,AR,BVL,Bell Ville,-32.37,-62.42
ARBVZ,AR,BVZ,Benavidez,-34.24,-58.42
ARCAA,AR,CAA,Carcaraña,-32.51,-61.09
ARCAB,AR,CAB,Caballito,-34.37,-58.27
ARCAE,AR,CAE,Canuelas,-35.02,-58.44
ARCAL,AR,CAL,Cerro Azul,-27.38,-55.29
ARCAN,AR,CAN,Carmen de Areco,-34.23,-59.49
ARCAO,AR,CAO,Carnerillo,-32.55,-64.02
ARCAS,AR,CAS,Calabacillas,-31.3,-58.08
ARCAT,AR,CAT,Catinzaco,-29.4,-67.23
ARCAZ,AR,CAZ,Cruz Alta,-33,-61.48
ARCBS,AR,CBS,Chimbas,-31.29,-68.32
ARCBZ,AR,CBZ,Capitan Bermudez,-32.49,-60.43
ARCCB,AR,CCB,Carlos Casares,-35.37,-61.21
ARCCO,AR,CCO,Chacabuco,-34.38,-60.28
ARCCP,AR,CCP,Conceptión,-27.2,-65.35
ARCCT,AR,CCT,Colonia Catriel,,
ARCDA,AR,CDA,Costa de Araujo,-32.45,-68.25
ARCDC,AR,CDC,Chacras De Coria,-33,-68.52
ARCDE,AR,CDE,Cruz del Eje,-30.44,-64.48
ARCDL,AR,CDL,Candelaria,-27.27,-55.45
ARCDN,AR,CDN,Carmen Del Sauce,-33.14,-60.48
ARCDP,AR,CDP,Cruz De Piedra,-33.02,-68.48
ARCDS,AR,CDS,Capilla del Señor,-34.18,-59.06
ARCEN,AR,CEN,Centenario,-35.5,-61.26
ARCEO,AR,CEO,Crespo,-32.02,-60.19
ARCFY,AR,CFY,Cafayate,-26.04,-65.58
ARCGA,AR,CGA,Cañada de Gómez,-32.49,-61.24
ARCGO,AR,CGO,Campo Grande,-27.13,-54.58
ARCHA,AR,CHA,Chajarí,-30.46,-57.59
ARCHL,AR,CHL,Choele Choel,-39.29,-65.65
ARCHO,AR,CHO,Chilecito,-29.1,-67.3
ARCHS,AR,CHS,Chascomus,-35.34,-58.01
ARCIU,AR,CIU,Ciudadela,-34.37,-58.32
ARCLC,AR,CLC,Caleta Córdoba,-45.44,-67.04
ARCLN,AR,CLN,Classon,-32.27,-61.17
ARCLO,AR,CLO,Campo Largo,-26.48,-60.5
ARCLX,AR,CLX,Clorinda,-25.28,-57.72
ARCMG,AR,CMG,Contralmirante Martín Guerrico,-39.01,-67.44
ARCMP,AR,CMP,Campana,-34.09,-58.57
ARCNL,AR,CNL,Canals,-33.33,-62.53
ARCNN,AR,CNN,Canning,-34.52,-58.31
ARCNO,AR,CNO,Cuadro Nacional,-34.37,-68.17
ARCNQ,AR,CNQ,Corrientes,-27.46,-58.83
ARCNT,AR,CNT,Charata,-27.21,-61.18
ARCOA,AR,COA,Coronda,-31.58,-60.55
ARCOC,AR,COC,Concordia,-31.39,-58.01
ARCOL,AR,COL,Colón,-32.13,-58.08
ARCOM,AR,COM,Las Compuertas,-33.02,-68.59
ARCON,AR,CON,Concepción,-28.23,-57.53
ARCOO,AR,COO,Colón,-33.53,-61.07
ARCOR,AR,COR,Córdoba,-31.24,-64.11
ARCOS,AR,COS,Concepcion de la Sierra,-27.59,-55.31
ARCOU,AR,COU,Concepción del Uruguay,-32.29,-58.14
ARCPA,AR,CPA,Cipoletti,-38.55,-67.59
ARCPC,AR,CPC,San Martín de los Andes,-40.1,-71.21
ARCPG,AR,CPG,Carmen de Patagones,-40.79,-62.98
ARCPY,AR,CPY,Chimpay,-39.1,-66.09
ARCQO,AR,CQO,Campo Quijano,-24.55,-65.39
ARCRA,AR,CRA,Cevil Redondo,-26.47,-65.17
ARCRD,AR,CRD,Comodoro Rivadavia,-45.86,-67.47
ARCRL,AR,CRL,Canada Rosquin,-32.03,-61.36
ARCRO,AR,CRO,Campo Ramón,-27.28,-55
ARCRR,AR,CRR,Ceres,-29.88,-61.94
ARCRY,AR,CRY,Colonia Caroya,-31.02,-64.06
ARCSA,AR,CSA,Cabo San Antonio,-36.02,-56.34
ARCSL,AR,CSL,Casilda,-33.03,-61.1
ARCSN,AR,CSN,Capitán Sarmiento,-34.1,-59.48
ARCSO,AR,CSO,Campo Santo,-24.4,-65.06
ARCSS,AR,CSS,Chabás,-33.14,-61.21
ARCST,AR,CST,Cinco Saltos,-38.49,-68.04
ARCSZ,AR,CSZ,Coronel Suarez,-37.28,-61.55
ARCTA,AR,CTA,Tabay,-28.18,-58.17
ARCTC,AR,CTC,Catamarca,-28.46,-65.77
ARCTL,AR,CTL,Castelar,-34.39,-58.38
ARCTO,AR,CTO,Catrilo,-36.24,-63.25
ARCUA,AR,CUA,Cuatreros/Bahia Blanca,,
ARCUE,AR,CUE,Caucete,-31.39,-68.17
ARCUT,AR,CUT,Cutral-Có,-38.56,-69.14
ARCVH,AR,CVH,Caviahue,-37.86,-71.05
ARCVI,AR,CVI,Caleta Olivia,-46.47,-67.57
ARCVO,AR,CVO,Campo Viera,-27.23,-55.02
ARCVP,AR,CVP,Cevil Pozo,-26.51,-65.07
ARCVY,AR,CVY,Chivilcoy,-34.54,-60.02
ARCYA,AR,CYA,Yeruá,-31.28,-58.16
ARCYB,AR,CYB,City Bell,-34.51,-58.03
ARCZO,AR,CZO,Colazo,-31.55,-63.24
ARDCU,AR,DCU,Don Torcuato,-34.3,-58.38
ARDGU,AR,DGU,Del Guazu,-33.54,-58.52
ARDIX,AR,DIX,Daireaux,-36.36,-61.45
ARDKS,AR,DKS,Dock Sud,-34.22,-58.12
ARDME,AR,DME,Diamante,-24.29,-65.11
ARDOR,AR,DOR,Dorrego,-32.54,-68.45
ARDSU,AR,DSU,Dock Sur,-34.39,-58.2
AREBA,AR,EBA,Eugenio Bustos,-33.46,-69.04
AREBO,AR,EBO,El Bordo,-24.44,-65.06
AREEA,AR,EEA,Ensenada,-34.52,-57.53
AREHL,AR,EHL,El Bolsón,-41.58,-71.31
AREJO,AR,EJO,Nueve de Julio,-35.27,-60.53
ARELB,AR,ELB,El Bolsón,-27.55,-65.53
ARELO,AR,ELO,Eldorado,-26.4,-54.62
ARELP,AR,ELP,El Plumerillo,-32.5,-68.47
AREMX,AR,EMX,El Maitén,-42.03,-71.1
AREPA,AR,EPA,El Palomar,-34.32,-58.36
AREPL,AR,EPL,Espeleta,-34.46,-58.15
AREQS,AR,EQS,Esquel,-42.91,-71.32
ARESE,AR,ESE,Esteban Echeverría,-34.48,-58.28
ARESP,AR,ESP,Esperanza,-31.27,-60.56
ARETL,AR,ETL,El Trébol,-32.11,-61.43
ARETP,AR,ETP,El Talar de Pacheco,-34.27,-58.39
AREVA,AR,EVA,Ciudad Evita,-34.51,-58.54
AREZA,AR,EZA,Ezeiza,-34.5,-58.31
AREZE,AR,EZE,Ministro Pistarini Apt/Buenos Aires,-34.5,-58.31
ARFAM,AR,FAM,Famaillá,-27.03,-65.24
ARFBE,AR,FBE,Fray Luis Beltran,-33.01,-68.39
ARFEN,AR,FEN,Federación,-31,-57.54
ARFER,AR,FER,Fernández,-27.55,-63.54
ARFLB,AR,FLB,Fray Luis A. Beltrán,-32.47,-60.44
ARFLO,AR,FLO,Florida,-34.53,-58.49
ARFMA,AR,FMA,Formosa,-26.18,-58.17
ARFNS,AR,FNS,Funes,-32.55,-60.49
ARFRK,AR,FRK,Franck,-31.35,-60.56
ARFRR,AR,FRR,Ferreyra,-31.27,-64.06
ARFRT,AR,FRT,Frontera,-31.08,-62.48
ARFRY,AR,FRY,Freyre,-31.09,-62.05
ARFTE,AR,FTE,El Calafate,-50.16,-72.03
ARFVB,AR,FVB,Florencio Varela,-34.8,-58.27
ARGAR,AR,GAR,Garín,-34.25,-58.45
ARGBE,AR,GBE,General Belgrano,-35.46,-58.3
ARGBG,AR,GBG,Grand Bourg,-34.29,-58.43
ARGCA,AR,GCA,General Cabrera,-32.48,-63.52
ARGCR,AR,GCR,Godoy Cruz,-32.56,-68.5
ARGDG,AR,GDG,General Gutiérrez,-32.57,-68.47
ARGDL,AR,GDL,General Deheza,-32.44,-63.46
ARGEO,AR,GEO,Agrelo,-33.07,-68.53
ARGGL,AR,GGL,General Güemes,-24.4,-65.03
ARGGS,AR,GGS,Gobernador Gregores,-48.76,-70.23
ARGHU,AR,GHU,Gualeguaychú,-33.01,-58.31
ARGLS,AR,GLS,General Lagos,-33.06,-60.34
ARGLV,AR,GLV,General Lavalle,-36.24,-56.58
ARGMA,AR,GMA,General Madariaga,-36.59,-57.07
ARGNR,AR,GNR,General Roca,-39.02,-67.35
ARGOB,AR,GOB,Gobernador Benegas,-32.57,-68.51
ARGOC,AR,GOC,González Catán,-34.46,-58.37
ARGOD,AR,GOD,Gowland,-34.4,-59.21
ARGPC,AR,GPC,General Pacheco,-35.27,-58.39
ARGPO,AR,GPO,General Pico,-35.66,-63.75
ARGRB,AR,GRB,Granadero Baigorria,-32.51,-60.42
ARGRC,AR,GRC,Gobernador Roca,-27.11,-55.28
ARGRD,AR,GRD,General Rodríguez,-34.37,-58.57
ARGRM,AR,GRM,General Ramírez,-32.11,-60.12
ARGRU,AR,GRU,Garupá,-27.29,-55.5
ARGUM,AR,GUM,Güemes,-27.19,-65.2
ARGUR,AR,GUR,Guerrico,-33.4,-60.24
ARGUY,AR,GUY,Gualeguay,-33.09,-59.2
ARGVA,AR,GVA,General Alvear,-35,-67.39
ARGVL,AR,GVL,Gálvez,-32.01,-61.13
ARGYM,AR,GYM,Guaymallén,-32.54,-68.47
ARHAE,AR,HAE,Haedo,-34.38,-58.35
ARHER,AR,HER,Hernando,-32.25,-63.44
ARHIC,AR,HIC,Hickmann,-23.12,-63.34
ARHOS,AR,HOS,Chos Malal,-37.37,-70.27
ARHUG,AR,HUG,Hughes,-33.48,-61.2
ARHUM,AR,HUM,Humboldt,-31.25,-61.05
ARHUR,AR,HUR,Hurlingham,-34.36,-58.38
ARHVB,AR,HVB,Herrera Vegas,-36.05,-61.25
ARIAL,AR,IAL,Ingeniero Allan,-35.51,-58.12
ARIBY,AR,IBY,Ibicuy,-33.44,-59.1
ARICA,AR,ICA,Ireneo Portela,-33.58,-59.4
ARICV,AR,ICV,Isidro Casanova,-34.43,-58.34
ARIGB,AR,IGB,Ingeniero Jacobacci,-41.32,-69.54
ARIGI,AR,IGI,Ingeniero Giagnoni,-33.07,-68.25
ARIGR,AR,IGR,Iguazú,-25.34,-54.34
ARILH,AR,ILH,Ingeniero Luis A. Huergo,-39.05,-67.14
ARIMZ,AR,IMZ,Ingeniero Maschwitz,-34.22,-58.44
ARING,AR,ING,Lago Argentino,-50.34,-72.27
ARINW,AR,INW,Ingeniero White/Bahia Blanca,-38.47,-62.16
ARIQO,AR,IQO,Coquimbito,-32.58,-68.45
ARIRJ,AR,IRJ,La Rioja,-29.41,-66.85
ARITZ,AR,ITZ,Ituzaingo,-34.4,-58.4
ARJEC,AR,JEC,El Carril,-25.05,-65.28
ARJGR,AR,JGR,Gerli,-34.42,-58.23
ARJJL,AR,JJL,Ingeniero J. Allan,-34.53,-58.11
ARJLF,AR,JLF,Los Polvorines,-34.3,-58.41
ARJLS,AR,JLS,Jose Leon Suarez,-34.53,-58.57
ARJMG,AR,JMG,Manuel B. Gonnet,-34.51,-58.01
ARJMJ,AR,JMJ,Marcos Juarez,-32.42,-62.06
ARJNI,AR,JNI,Junín,-34.35,-60.58
ARJNR,AR,JNR,Navarro,-35.01,-59.16
ARJPT,AR,JPT,Pico Truncado,-46.48,-67.58
ARJPX,AR,JPX,Justiniano Posse,-32.53,-62.4
ARJPZ,AR,JPZ,José C. Paz,-34.3,-58.45
ARJRC,AR,JRC,Rio Colorado,-39.01,-64.05
ARJSM,AR,JSM,José de San Martín,-44.02,-70.29
ARJTR,AR,JTR,Etruria,-32.56,-63.15
ARJUA,AR,JUA,Juárez Celman,-31.16,-64.1
ARJUJ,AR,JUJ,Jujuy,-24.18,-65.29
ARJUN,AR,JUN,Junín de Los Andes,-39.56,-71.05
ARLAP,AR,LAP,Las Parejas,-32.41,-61.32
ARLAR,AR,LAR,La Reja,-34.38,-58.48
ARLAT,AR,LAT,La Tablada,-27.44,-64.12
ARLAV,AR,LAV,Lavalle,-28.12,-65.08
ARLBA,AR,LBA,Loberia,-38.09,-58.47
ARLBL,AR,LBL,Los Boulevares,-31.19,-64.13
ARLCH,AR,LCH,Los Charrúas,-31.1,-58.11
ARLCM,AR,LCM,La Cumbre,-38.12,-61.79
ARLCP,AR,LCP,Loncopué,-38.04,-70.37
ARLCR,AR,LCR,La Calera,-31.2,-64.2
ARLCS,AR,LCS,Las Catitas,-33.18,-68.02
ARLCT,AR,LCT,La Carlota,-33.26,-63.18
ARLCU,AR,LCU,Lujan de Cuyo,-33.03,-68.52
ARLDM,AR,LDM,Lomas del Mirador,-34.39,-58.32
ARLES,AR,LES,La Escondida,-27.07,-59.27
ARLFL,AR,LFL,La Falda,-31.05,-64.3
ARLFR,AR,LFR,Laferrere,-34.45,-58.35
ARLGN,AR,LGN,Luis Guillon,-34.48,-58.27
ARLGS,AR,LGS,Malargüe,-35.28,-69.35
ARLHE,AR,LHE,Las Heras,-32.51,-68.49
ARLHG,AR,LHG,Las Higueras,-33.06,-64.17
ARLHR,AR,LHR,Loma Hermosa,-34.32,-58.35
ARLHS,AR,LHS,Las Heras,-46.58,-68.92
ARLIM,AR,LIM,Lima,-34.03,-59.12
ARLLM,AR,LLM,La Consulta,-33.44,-69.07
ARLLO,AR,LLO,Llavallol,-34.47,-58.26
ARLLS,AR,LLS,Las Lomitas,-26.68,-64.57
ARLMC,AR,LMC,Lezama (Manuel J. Cobo),-35.52,-57.54
ARLMD,AR,LMD,Los Menucos,-47.22,-67.47
ARLMZ,AR,LMZ,Lomas de Zamora,-34.46,-58.23
ARLNO,AR,LNO,Leandro N. Alem,-27.36,-55.19
ARLNS,AR,LNS,Lanús,-34.42,-58.24
ARLPA,AR,LPA,La Paz,-30.45,-59.39
ARLPD,AR,LPD,Las Paredes,-34.35,-68.27
ARLPG,AR,LPG,La Plata,-34.51,-57.53
ARLPM,AR,LPM,La Paz,-33.28,-67.33
ARLPS,AR,LPS,Las Palmas,-34.01,-59.07
ARLQU,AR,LQU,La Quiaca,-22.06,-65.37
ARLRS,AR,LRS,León Rouges,-27.13,-65.32
ARLTA,AR,LTA,La Toma,-33.03,-65.37
ARLTV,AR,LTV,Alto Verde,-33.09,-67.21
ARLUJ,AR,LUJ,Luján,-34.34,-59.06
ARLUL,AR,LUL,Lules,-26.56,-65.21
ARLUQ,AR,LUQ,San Luis,-33.18,-66.21
ARLVL,AR,LVL,Las Varillas,-31.19,-64.17
ARLZG,AR,LZG,Luzuriaga,-32.57,-68.49
ARMAC,AR,MAC,Macachin,-37.08,-63.4
ARMAQ,AR,MAQ,Mainque,-39.04,-67.18
ARMAR,AR,MAR,Martínez,-34.29,-58.3
ARMCR,AR,MCR,Monte Cristo,-31.21,-63.57
ARMCS,AR,MCS,Monte Caseros,-30.24,-57.62
ARMDE,AR,MDE,Mataderos,-34.4,-58.3
ARMDQ,AR,MDQ,Mar del Plata,-38.03,-57.32
ARMDX,AR,MDX,Mercedes,-34.65,-59.43
ARMDZ,AR,MDZ,Mendoza,-32.88,-68.84
ARMED,AR,MED,Medanitos,-27.32,-67.36
ARMGA,AR,MGA,Maria Grande,-31.39,-59.54
ARMGD,AR,MGD,Magdalena,-35.01,-57.37
ARMIL,AR,MIL,Milagro,-31.01,-65.59
ARMJH,AR,MJH,Mariano J. Haedo,-34.38,-58.36
ARMJR,AR,MJR,Miramar,-46.28,-67.87
ARMML,AR,MML,Monte Maíz,-33.12,-62.36
ARMNT,AR,MNT,Monte Chingolo,-34.43,-58.21
ARMOC,AR,MOC,Mocoretá,-30.38,-57.58
ARMOQ,AR,MOQ,Moquehuá,-35.05,-59.48
ARMOR,AR,MOR,Moreno,-34.38,-58.47
ARMPO,AR,MPO,Campo Salto,-34.17,-60.14
ARMPU,AR,MPU,Maipú,-32.59,-68.48
ARMQD,AR,MQD,Maquinchao,-41.24,-68.7
ARMQO,AR,MQO,Monte Quemado,-25.48,-62.52
ARMRN,AR,MRN,Moron,-34.38,-58.37
ARMRO,AR,MRO,Melchor Romero,-34.56,-59.03
ARMRT,AR,MRT,Martin Coronado,-34.34,-58.35
ARMTC,AR,MTC,Montecarlo,-26.33,-54.45
ARMTH,AR,MTH,Matheu,-34.37,-58.83
ARMUN,AR,MUN,Munro,-34.32,-58.33
ARMYR,AR,MYR,Mayor Drummond,-33.01,-68.52
ARNCL,AR,NCL,Naschel,-52.55,-65.23
ARNEC,AR,NEC,Necochea,-38.55,-58.73
ARNES,AR,NES,General Enrique Mosconi,-22.36,-63.49
ARNIN,AR,NIN,Junin,-33.09,-68.29
ARNNA,AR,NNA,Nonogasta,-29.18,-67.3
ARNOG,AR,NOG,Nogoyá,-32.23,-59.47
ARNOS,AR,NOS,Molinos,-25.25,-66.19
ARNQN,AR,NQN,Neuquén,-38.57,-68.04
AROBA,AR,OBA,Oberá,-27.28,-55.07
AROCT,AR,OCT,Oncativo,-31.55,-63.4
ARODN,AR,ODN,Soldini,-33.02,-60.45
ARODR,AR,ODR,Open Door,-34.3,-59.05
AROES,AR,OES,San Antonio Oeste,-40.3,-65.48
AROLN,AR,OLN,Colonia Sarmiento,-36.31,-63.2
ARORA,AR,ORA,Oran,-27.19,-65.54
ARORE,AR,ORE,Caseros,-34.37,-58.32
AROVI,AR,OVI,Olavarría,-36.53,-60.2
AROYA,AR,OYA,Goya,-29.14,-59.26
AROYO,AR,OYO,Tres Arroyos,-38.23,-60.17
ARPAL,AR,PAL,Puerto Alumbrera,-32.39,-60.45
ARPAS,AR,PAS,Pasco,-32.45,-63.2
ARPBG,AR,PBG,Puerto Belgrano/Bahia Blanca,,
ARPCO,AR,PCO,Punta Colorada,-41.42,-65
ARPCY,AR,PCY,Pilcomayo,-23.87,-60.87
ARPDC,AR,PDC,Pampa del Castillo,-45.48,-68.05
ARPDM,AR,PDM,Pozo del Molle,-32.02,-62.55
ARPDT,AR,PDT,Piedritas,-34.45,-62.58
ARPED,AR,PED,Perdriel,-33.05,-68.53
ARPEH,AR,PEH,Pehuajó,-35.49,-61.54
ARPEL,AR,PEL,Puerto Eldorado,-26.21,-54.41
ARPGO,AR,PGO,Pergamino,-33.53,-60.34
ARPGU,AR,PGU,Pigue,-37.37,-62.25
ARPGV,AR,PGV,Puerto Galvan/Bahia Blanca,,
ARPLA,AR,PLA,Puerto Lavalle,-29.01,-59.11
ARPLO,AR,PLO,Punta Loyola,,
ARPLR,AR,PLR,Pilar,-34.26,-58.54
ARPLT,AR,PLT,Plottier,-38.58,-68.14
ARPLU,AR,PLU,Pedro Luro,-39.29,-62.41
ARPMA,AR,PMA,Palmira,-33.03,-68.34
ARPME,AR,PME,Punta Medanos,-36.5,-56.4
ARPML,AR,PML,Pérez Millán,-33.46,-60.06
ARPMN,AR,PMN,Puerto Mineral,-26.57,-55.08
ARPMO,AR,PMO,Puerto Madero,-34.36,-58.22
ARPMQ,AR,PMQ,Perito Moreno,-46.57,-70.93
ARPMY,AR,PMY,Puerto Madryn,-42.45,-65.02
ARPNL,AR,PNL,Puerto Nacional/Bahia Blanca,,
ARPOC,AR,POC,Pocitos,-28.51,-64.87
ARPOM,AR,POM,Poman,-28.24,-66.13
ARPP9,AR,PP9,Pablo Podestá,-34.36,-58.31
ARPPL,AR,PPL,Palpala,-24.15,-65.12
ARPQU,AR,PQU,Punta Quilla,,
ARPRA,AR,PRA,Paraná,-31.44,-60.32
ARPRQ,AR,PRQ,Presidente Roque Sáenz Peña,-34.33,-58.3
ARPRS,AR,PRS,Puerto Rosales/Bahia Blanca,-38.56,-62.04
ARPRZ,AR,PRZ,Perez,-32.59,-60.45
ARPSS,AR,PSS,Posadas,-27.36,-55.89
ARPTC,AR,PTC,Puerto Tirol,-27.23,-59.05
ARPTN,AR,PTN,Platanos,-34.46,-58.09
ARPUB,AR,PUB,Puerto Borghi,,
ARPUD,AR,PUD,Puerto Deseado,-47.45,-65.54
ARPUR,AR,PUR,Puerto Rico,-26.48,-55.02
ARPVA,AR,PVA,Punta de Vacas,-32.51,-69.45
ARPWA,AR,PWA,Puerto Wanda,-25.58,-54.36
ARQBR,AR,QBR,Quebracho/San Lorenzo,-32.39,-60.43
ARQLV,AR,QLV,Olivos,-34.51,-58.49
ARQPQ,AR,QPQ,Pinamar,-37.1,-56.85
ARQQN,AR,QQN,Quequén,-38.32,-58.42
ARQUI,AR,QUI,Quilmes,-34.43,-58.16
ARRAF,AR,RAF,Rafaela,-31.16,-61.29
ARRAM,AR,RAM,Ramallo,-33.48,-60
ARRCQ,AR,RCQ,Reconquista,-29.09,-59.39
ARRCU,AR,RCU,Río Cuarto,-33.08,-64.21
ARRDC,AR,RDC,Rodeo de la Cruz,-32.55,-68.44
ARRDE,AR,RDE,Remedios de Escalada,-34.44,-58.23
ARRDL,AR,RDL,Rosario de Lerma,-24.59,-65.35
ARRDM,AR,RDM,Ruiz de Montoya,-26.59,-55.03
ARRDR,AR,RDR,Rodeo del Medio,-32.59,-68.41
ARRDS,AR,RDS,Rincón de los Sauces,-37.35,-69.09
ARREL,AR,REL,Trelew,-43.25,-65.3
ARRES,AR,RES,Resistencia,-27.45,-58.98
ARRFN,AR,RFN,Rufino,-34.16,-62.42
ARRFO,AR,RFO,Rosario de la Frontera,-25.48,-64.58
ARRGA,AR,RGA,Río Grande,-53.47,-67.42
ARRGL,AR,RGL,Río Gallegos,-51.38,-69.13
ARRHD,AR,RHD,Río Hondo,-27.34,-64.57
ARRIC,AR,RIC,Rio Cullen,-52.48,-68.11
ARRIV,AR,RIV,Rivadavia,-33.11,-68.28
ARRLA,AR,RLA,Recalde,-36.39,-61.05
ARRLO,AR,RLO,Merlo,-32.21,-65.01
ARRMJ,AR,RMJ,Ramos Mejia,-34.39,-58.33
ARROC,AR,ROC,Puerto Ingeniero M. Rocca,-34.51,-57.56
ARROJ,AR,ROJ,Rojas,-34.11,-60.44
ARROL,AR,ROL,Roldán,-32.53,-60.54
ARROS,AR,ROS,Rosario,-32.57,-60.39
ARROY,AR,ROY,Río Mayo,-45.41,-70.16
ARRRS,AR,RRS,Sauce Viejo,-31.46,-60.51
ARRSA,AR,RSA,Santa Rosa,-36.62,-64.29
ARRSF,AR,RSF,Resinfor,-32.39,-60.44
ARRSG,AR,RSG,Rio Segundo,-31.39,-63.54
ARRTO,AR,RTO,Río Tercero,-32.1,-64.07
ARRWO,AR,RWO,Rawson,-43.18,-65.06
ARRXV,AR,RXV,San Carlos Centro,-31.44,-61.06
ARRYO,AR,RYO,Río Turbio,-51.32,-72.18
ARRZA,AR,RZA,Santa Cruz,-50.01,-68.25
ARSA2,AR,SA2,Santo Tome,-31.4,-60.46
ARSAA,AR,SAA,San Antonio de Arredondo,-31.29,-64.31
ARSAE,AR,SAE,San Antonio Este,-40.48,-64.44
ARSAG,AR,SAG,San Andrés de Giles,-34.27,-59.26
ARSAJ,AR,SAJ,San Jose,-32.11,-58.12
ARSAL,AR,SAL,Salto,-30.75,-57.97
ARSAN,AR,SAN,Santa Ana,-27.2,-55.35
ARSAO,AR,SAO,San Antonio de Areco,-34.15,-59.28
ARSAP,AR,SAP,San Antonio de Padua,-34.39,-58.41
ARSAR,AR,SAR,Sarandi,-34.4,-58.2
ARSAT,AR,SAT,San Martin,-34.34,-58.31
ARSCA,AR,SCA,San Carlos,-33.46,-69.02
ARSDE,AR,SDE,Santiago del Estero,-27.78,-64.25
ARSDR,AR,SDR,Salto de las Rosas,-34.43,-68.14
ARSFE,AR,SFE,San Fernando,-34.44,-58.57
ARSFN,AR,SFN,Santa Fe,-31.36,-60.41
ARSFO,AR,SFO,San Francisco,-31.25,-62.04
ARSFS,AR,SFS,San Francisco Solano,-34.46,-58.18
ARSFV,AR,SFV,San Fernando del Valle de Catamarca,-28.28,-65.46
ARSGV,AR,SGV,Sierra Grande,-41.6,-65.38
ARSIA,AR,SIA,Santa Isabel,-33.54,-61.42
ARSIG,AR,SIG,San Ignacio,-27.16,-55.34
ARSIS,AR,SIS,San Isidro,-34.28,-58.31
ARSJG,AR,SJG,San Jorge,-31.54,-61.52
ARSJL,AR,SJL,Puerto San Julian,-49.18,-67.43
ARSJM,AR,SJM,San José de Metán,-25.29,-64.57
ARSJO,AR,SJO,San Justo,-34.4,-58.33
ARSJR,AR,SJR,San Javier,-30.35,-59.57
ARSJV,AR,SJV,San Javier,-27.53,-55.08
ARSLA,AR,SLA,Salta,-24.78,-65.41
ARSLL,AR,SLL,Saladillo,-35.38,-59.46
ARSLO,AR,SLO,San Lorenzo,-47.23,-66.17
ARSLU,AR,SLU,Sta. Lucía,-31.32,-68.29
ARSMA,AR,SMA,San Martin,-32.43,-60.44
ARSMC,AR,SMC,San Miguel de Tucumán,-26.49,-65.12
ARSMG,AR,SMG,San Miguel,-34.28,-58.59
ARSMM,AR,SMM,San Miguel del Monte,-35.27,-58.48
ARSMR,AR,SMR,San Martin,-33.04,-68.28
ARSMT,AR,SMT,San Mateo,-27.49,-54.52
ARSNG,AR,SNG,San Agustin,-31.58,-64.22
ARSNN,AR,SNN,San Andres,-34.33,-58.31
ARSNP,AR,SNP,San Pedro,-33.4,-59.39
ARSNS,AR,SNS,San Nicolás de los Arroyos,-33.2,-60.14
ARSPD,AR,SPD,San Pedro,-33.41,-59.1
ARSSA,AR,SSA,San Salvador,-31.37,-58.3
ARSSJ,AR,SSJ,San Salvador de Jujuy,-24.11,-65.18
ARSSN,AR,SSN,San Sebastián,-53.18,-68.28
ARSST,AR,SST,Santa Teresita,-33.29,-60.26
ARSTA,AR,STA,Santa Rosa,-33.15,-68.09
ARSTL,AR,STL,Santa Lucia,-31.32,-68.29
ARSUI,AR,SUI,Suipacha,-34.46,-59.41
ARSUS,AR,SUS,Sunchales,-30.56,-61.34
ARSVE,AR,SVE,San Vicente,-26.37,-54.08
ARSZQ,AR,SZQ,Sáenz Peña,-34.36,-58.32
ARTAB,AR,TAB,Tablada,-34.42,-58.32
ARTDL,AR,TDL,Tandil,-37.32,-59.13
ARTEM,AR,TEM,Temperley,-34.45,-58.22
ARTEO,AR,TEO,Teodelina,-34.11,-61.32
ARTGR,AR,TGR,Tigre,-34.25,-58.35
ARTIC,AR,TIC,Ticino,-32.42,-63.27
ARTOR,AR,TOR,Tornquist,-38.06,-62.14
ARTOT,AR,TOT,Tortuguitas,-34.28,-58.45
ARTPL,AR,TPL,Tapiales,-34.42,-58.31
ARTPV,AR,TPV,Ranelagh,-34.48,-58.12
ARTRS,AR,TRS,Tristan Suarez,-34.51,-58.34
ARTTG,AR,TTG,Tartagal,-22.51,-63.79
ARTUC,AR,TUC,Tucumán,-26.49,-65.13
ARTUN,AR,TUN,Tunuyan,-33.34,-69.01
ARTVJ,AR,TVJ,Tafi Viejo,-26.44,-65.16
ARUAQ,AR,UAQ,San Juan,-47.18,-66.31
ARUKD,AR,UKD,Tapalque,-36.21,-60.01
ARULA,AR,ULA,San Julian,-49.18,-67.43
ARULP,AR,ULP,Uriburu,-36.3,-63.5
ARURA,AR,URA,Uranga,-33.16,-60.42
ARURD,AR,URD,Urdurrain,-32.41,-58.53
ARURH,AR,URH,Ugarteche,-33.13,-68.53
ARUSA,AR,USA,Uspallata,-32.35,-69.2
ARUSH,AR,USH,Ushuaia,-54.48,-68.18
ARUZU,AR,UZU,Curuzú Cuatiá,-29.47,-58.03
ARVAA,AR,VAA,Valentin Alsina,-34.4,-58.24
ARVAD,AR,VAD,Villa Adelina,-34.3,-58.32
ARVAL,AR,VAL,Vista Alegre,-38.45,-68.11
ARVBA,AR,VBA,Villa Ballester,-34.32,-58.33
ARVBS,AR,VBS,Villa Bosch,-34.35,-58.34
ARVCA,AR,VCA,Villa Canas,-34,-61.36
ARVCF,AR,VCF,Valcheta,-40.6,-65.99
ARVCH,AR,VCH,Vichigasta,-29.28,-67.3
ARVCL,AR,VCL,Villa Celina,-34.43,-58.29
ARVCN,AR,VCN,Villa Constitución,-33.14,-60.2
ARVCP,AR,VCP,Villa Carlos Paz,-31.24,-64.31
ARVDM,AR,VDM,Viedma,-40.8,-62.99
ARVDP,AR,VDP,Virrey del Pino,-34.5,-58.38
ARVDR,AR,VDR,Villa Dolores,-27.4,-55.91
ARVDY,AR,VDY,Larroque,-33.02,-59.01
ARVED,AR,VED,Vedia,-34.29,-61.33
ARVEL,AR,VEL,Villa Elisa,-32.1,-58.24
ARVFL,AR,VFL,Vista Flores,-33.38,-69.09
ARVGB,AR,VGB,Villa Galicia,-34.47,-58.23
ARVGG,AR,VGG,Villa Gobernador Galvez,-33.01,-60.37
ARVGS,AR,VGS,General Villegas,-35.03,-63.01
ARVHE,AR,VHE,Villa Hernandarias,-31.14,-59.59
ARVIA,AR,VIA,Victoria,-34.27,-58.32
ARVIL,AR,VIL,Viale,-31.52,-60
ARVIM,AR,VIM,Villa Madero,-34.41,-58.29
ARVIN,AR,VIN,Villa Insuperable,-34.4,-58.31
ARVLA,AR,VLA,Villalonga,-39.53,-62.35
ARVLD,AR,VLD,Villa Dominico,-34.41,-58.19
ARVLG,AR,VLG,Villa Gesell,-37.25,-56.96
ARVLI,AR,VLI,Villa la Angostura,-40.47,-71.4
ARVLL,AR,VLL,Villa Allende,-31.18,-64.18
ARVLO,AR,VLO,Vicente López,-34.31,-58.29
ARVLP,AR,VLP,Villa Paez,-31.23,-64.12
ARVLR,AR,VLR,Villa Rosa,-34.25,-58.52
ARVLU,AR,VLU,Luque,-31.39,-63.22
ARVLV,AR,VLV,Gobernador Crespo,-30.23,-60.25
ARVLY,AR,VLY,Villa Lynch,-36.36,-61.22
ARVLZ,AR,VLZ,Villa Luzuriaga,-34.39,-58.35
ARVMD,AR,VMD,Villa Mercedes,-33.67,-65.46
ARVME,AR,VME,Villa Mercedes,-33.4,-65.28
ARVMP,AR,VMP,Villa Maipu,-34.34,-58.31
ARVMR,AR,VMR,Villa María,-32.25,-63.15
ARVMZ,AR,VMZ,Villa Manzano,-30.24,-68.07
ARVNA,AR,VNA,Villa Nueva,-32.26,-63.15
ARVNT,AR,VNT,Venado Tuerto,-33.44,-61.58
ARVRE,AR,VRE,Villa Regina,-39.06,-67.05
ARVRS,AR,VRS,Villa del Rosario,-31.35,-63.32
ARVST,AR,VST,Vistalba,-33.01,-68.53
ARVTS,AR,VTS,Villa Tesei,-34.36,-58.38
ARVTT,AR,VTT,Villa del Totoral,-30.7,-64.06
ARWIL,AR,WIL,Wilde,-34.42,-58.19
ARWNL,AR,WNL,Jauregui,-34.36,-59.1
ARXLM,AR,XLM,Fuentes,-33.1,-61.05
ARXMV,AR,XMV,Pichanal,-24.24,-64.92
ARXMX,AR,XMX,Ledesma,-27.63,-63.01
ARXOS,AR,XOS,Mosconi,-39.09,-67.59
ARXPD,AR,XPD,San Pedro,-22.65,-65.12
ARXSA,AR,XSA,General Enrique Godoy,-39.05,-67.09
ARZAE,AR,ZAE,Zárate,-34.06,-59.02
ARZAG,AR,ZAG,Villa Zagala,-34.33,-58.32
ARZAI,AR,ZAI,Embarcacíon,-23.13,-64.06
ARZON,AR,ZON,Zonda,-31.33,-68.44
ASAPI,AS,API,Apia,-13.5,-171.44
ASFTI,AS,FTI,Fitiuta,,
ASOFU,AS,OFU,Ofu,,
ASPPG,AS,PPG,Pago Pago,14.16,-170.42
ASTAV,AS,TAV,Tau,,
AT4ST,AT,4ST,Scharitz,47.23,11.17
AT6KS,AT,6KS,Badendorf,46.51,15.36
AT6NR,AT,6NR,Gallneukirchen,48.21,14.25
AT6TA,AT,6TA,Bruckbach,48,14.44
AT7PZ,AT,7PZ,Prinzersdorf,48.12,15.31
AT7ST,AT,7ST,Schlitters,47.22,11.5
AT7TA,AT,7TA,Pettnau,47.18,11.08
AT8HN,AT,8HN,Wolfsbach,48.04,14.4
ATA9Z,AT,A9Z,Zaussenberg,48.26,15.59
ATABC,AT,ABC,Abfaltersbach,46.45,12.32
ATABG,AT,ABG,Himberg,48.05,16.26
ATABK,AT,ABK,Aurach Bei Kitzbuhel,47.44,-12.3
ATABM,AT,ABM,Aschbach Markt,48.04,14.45
ATABS,AT,ABS,Absam,47.18,11.3
ATABT,AT,ABT,Abtenau,47.33,13.21
ATABU,AT,ABU,Andelsbuch,47.24,9.53
ATACH,AT,ACH,Aich,46.35,14.02
ATACK,AT,ACK,Achenkirch,47.31,11.42
ATADD,AT,ADD,Au an der Donau,48.13,14.34
ATADG,AT,ADG,Ardagger,48.1,14.49
ATADO,AT,ADO,Admont,47.34,14.27
ATADS,AT,ADS,Aschach an der Steyr,48,14.2
ATADU,AT,ADU,Andau,47.46,17.02
ATAED,AT,AED,Sankt Aegyd am Neuwalde,47.5,15.35
ATAFR,AT,AFR,Afritz,46.43,13.48
ATAGG,AT,AGG,Aggsbach Dorf,48.17,15.25
ATAGM,AT,AGM,Aggsbach Markt,48.18,15.24
ATAGZ,AT,AGZ,Altenberg bei Linz,48.22,14.2
ATAHI,AT,AHI,Altheim,48.15,13.14
ATAHN,AT,AHN,Antiesenhofen,48.35,13.4
ATAHO,AT,AHO,Althofen,46.52,14.29
ATAHZ,AT,AHZ,Engelhartszell,48.31,13.44
ATAIG,AT,AIG,Aigen im Mühlkreis,48.38,13.57
ATAIN,AT,AIN,Aigen,48.3,13.54
ATAKV,AT,AKV,Alkoven,48.17,14.06
ATAL4,AT,AL4,Altenberg,48.2,16.14
ATAL9,AT,AL9,Alpbach,47.24,11.57
ATALB,AT,ALB,Halbturn,47.52,16.59
ATALE,AT,ALE,Allentsteig,48.41,15.19
ATALH,AT,ALH,Allerheiligen,46.54,15.33
ATALK,AT,ALK,Altenmarkt im Pongau,47.22,13.25
ATALL,AT,ALL,Allhaming,48.09,14.1
ATALT,AT,ALT,Althofen,47.09,14.14
ATALZ,AT,ALZ,Aurolzmünster,48.15,13.27
ATAMK,AT,AMK,Altenmarkt,48.01,15.99
ATAMS,AT,AMS,Ameis,48.4,16.32
ATAMU,AT,AMU,Altmuenster,47.54,13.45
ATAND,AT,AND,Aderklaa,48.17,16.32
ATANF,AT,ANF,Anif,47.74,13.06
ATANG,AT,ANG,Stang,47.32,16.17
ATANI,AT,ANI,Neu-Anif,47.45,13.04
ATANR,AT,ANR,Anger,47.16,15.41
ATANS,AT,ANS,Ansfelden,48.12,14.17
ATANT,AT,ANT,Sankt Anton,47.07,10.16
ATAOT,AT,AOT,Arnoldstein,46.33,13.42
ATAPG,AT,APG,Aspang,47.33,16.05
ATAPT,AT,APT,Apetlon,47.45,16.5
ATARB,AT,ARB,Arbesthal,48.04,16.42
ATARG,AT,ARG,Anthering,47.52,13.01
ATARN,AT,ARN,Auern,47.59,14.07
ATARO,AT,ARO,Albersdorf,47.07,15.41
ATARV,AT,ARV,Sankt Andrä,46.46,14.49
ATASC,AT,ASC,Aschach an der Donau,48.22,14.02
ATASP,AT,ASP,Aspern,48.21,16.48
ATATB,AT,ATB,Atzbach,48.05,13.42
ATATG,AT,ATG,Altlengbach,48.09,15.55
ATATH,AT,ATH,Altach,47.21,9.39
ATATK,AT,ATK,Paternion,46.42,13.38
ATATN,AT,ATN,Asten,48.13,14.24
ATATP,AT,ATP,Attnang-Puchheim,48,13.43
ATATS,AT,ATS,Altaussee,47.38,13.46
ATATT,AT,ATT,Amstetten,48.07,14.52
ATATZ,AT,ATZ,Atzenbrugg,48.17,15.54
ATAUE,AT,AUE,Bad Aussee,47.35,13.46
ATAWD,AT,AWD,Abwinden,48.16,14.26
ATAWG,AT,AWG,Adlwang,47.59,14.13
ATAWH,AT,AWH,Altenwörth,48.23,15.51
ATAZX,AT,AZX,Irdning,47.3,14.06
ATB7B,AT,B7B,Sebersdorf,47.12,15.59
ATB9G,AT,B9G,Grambach,47.01,15.3
ATBAG,AT,BAG,Brunn am Gebirge,48.07,16.18
ATBB9,AT,BB9,Burg,47.13,16.24
ATBBG,AT,BBG,Bleiburg,46.35,14.48
ATBBH,AT,BBH,Bärnbach,47.06,15.12
ATBBN,AT,BBN,Breitenbrunn,47.56,16.43
ATBDA,AT,BDA,Baierdorf bei Anger,47.08,15.2
ATBDG,AT,BDG,Bad Deutsch-Altenburg,48.08,16.54
ATBDH,AT,BDH,Haring,41.3,12.06
ATBDN,AT,BDN,Baden,48,16.14
ATBDS,AT,BDS,Badersdorf,47.12,16.22
ATBE8,AT,BE8,Hof bei salzburg,47.49,13.13
ATBES,AT,BES,Bergheim/Salzburg,47.5,13.01
ATBFI,AT,BFI,Bad Fischau,47.5,16.1
ATBFL,AT,BFL,Bad Leonfelden,48.31,14.17
ATBFS,AT,BFS,Bischofshofen,47.25,13.13
ATBFW,AT,BFW,Breitenfurt bei Wien,48.08,16.09
ATBGA,AT,BGA,Badgastein,47.07,13.08
ATBGC,AT,BGC,Bad Gleichenberg,46.87,15.9
ATBGH,AT,BGH,Berghausen,46.42,15.35
ATBGK,AT,BGK,Burgkirchen,48.12,13.06
ATBGM,AT,BGM,Bad Goisern,47.38,13.37
ATBGN,AT,BGN,Kleinmutschen,47.27,16.34
ATBGT,AT,BGT,Baumgartenberg,48.13,14.44
ATBGW,AT,BGW,Kirchschlag in der Buckligen Welt,47.3,16.17
ATBHK,AT,BHK,Buchkirchen,48.14,14.01
ATBHL,AT,BHL,Bad Hall,48.02,14.12
ATBIB,AT,BIB,Baumgarten Im Burgenland,47.44,16.3
ATBIE,AT,BIE,Biedermannsdorf,48.05,16.21
ATBIS,AT,BIS,Bisamberg/Wien,48.2,16.21
ATBKA,AT,BKA,Bleiberg-Kreuth,46.37,13.38
ATBKB,AT,BKB,Bad Radkersburg,46.41,15.59
ATBKD,AT,BKD,Birkfeld,47.21,15.41
ATBKL,AT,BKL,Bruck an der Leitha,48.03,16.75
ATBKZ,AT,BKZ,Bad Kreuzen,48.26,14.8
ATBLU,AT,BLU,Bludenz,47.09,9.49
ATBMB,AT,BMB,Behamberg,48.02,14.3
ATBMF,AT,BMF,Bad Mitterndorf,47.33,13.55
ATBND,AT,BND,Brand,47.06,9.44
ATBNF,AT,BNF,Berndorf,47.94,16.1
ATBNN,AT,BNN,Hobersbrunn,48.3,16.34
ATBNT,AT,BNT,Blindenmarkt,48.08,14.59
ATBOE,AT,BOE,Böhlerwenk,47.59,14.45
ATBRA,AT,BRA,Braunau am Inn,48.15,13.02
ATBRB,AT,BRB,Bärenbach,47.41,15.07
ATBRD,AT,BRD,Brand,48.32,15.19
ATBRG,AT,BRG,Bruck an der Glocknerstrasse,47.17,12.49
ATBRH,AT,BRH,Bad Erlach,47.44,16.12
ATBRI,AT,BRI,Engabrunn,48.27,15.45
ATBRL,AT,BRL,Brückl,46.74,14.53
ATBRN,AT,BRN,Brunn,47.2,14.59
ATBRU,AT,BRU,Bruck an der Mur,47.25,15.17
ATBRZ,AT,BRZ,Bregenz,47.3,9.46
ATBSB,AT,BSB,Bad Sauerbrunn,47.46,16.2
ATBSH,AT,BSH,Bad Schallerbach,48.14,13.55
ATBSL,AT,BSL,Bad Sankt Leonhard im Lavanttal,46.57,14.47
ATBSZ,AT,BSZ,Breitenschützing,48.05,13.48
ATBTE,AT,BTE,Baumgarten am Tullnerfeld,48.17,16.02
ATBTH,AT,BTH,Breitenaich,48.15,13.58
ATBTU,AT,BTU,Breitenau,47.44,16.09
ATBUC,AT,BUC,Buch,48.07,15.02
ATBUG,AT,BUG,Litzelsdorf,47.12,16.09
ATBVL,AT,BVL,Bad Vöslau,47.57,16.13
ATBVU,AT,BVU,Bad Vigaun,47.4,13.08
ATBWA,AT,BWA,Breitenwaida,48.3,16.04
ATBWD,AT,BWD,Brunn an der Wild,48.41,15.31
ATBWN,AT,BWN,Bad Wimsbach-Neydharting,48.04,13.54
ATBXG,AT,BXG,Brixlegg,47.25,11.52
ATBXT,AT,BXT,Brixen im Thale,47.27,12.15
ATCH8,AT,CH8,Trofaiach,47.25,15
ATD2L,AT,D2L,Dobl,48.16,13.24
ATD4S,AT,D4S,Putzleinsdorf,48.31,13.53
ATDAM,AT,DAM,Damüls,47.17,9.53
ATDBL,AT,DBL,Dobl,46.57,15.22
ATDDT,AT,DDT,Dellach im Drautal,46.44,13.04
ATDER,AT,DER,Gedersdorf,48.26,15.41
ATDEU,AT,DEU,Deutschlandsberg,46.49,15.13
ATDFC,AT,DFC,Engerwitzdorf,48.21,14.27
ATDFF,AT,DFF,Dorf an der Pram,48.16,13.37
ATDFL,AT,DFL,Dorfla,47,15.28
ATDIA,AT,DIA,Dietach,48.05,14.25
ATDKZ,AT,DKZ,Deutschkreutz,47.36,16.38
ATDOF,AT,DOF,Hadersdorf,48.27,15.43
ATDOR,AT,DOR,Dornbirn,47.25,9.43
ATDRA,AT,DRA,Drasenhofen,48.45,-16.39
ATDRF,AT,DRF,Dorf,48.17,13.37
ATDRO,AT,DRO,Dross,48.27,15.34
ATDSH,AT,DSH,Ludesch,47.12,9.47
ATDSU,AT,DSU,Desselbrunn,48.01,13.46
ATDSZ,AT,DSZ,Deutsch Schutzen,47.1,16.27
ATDTD,AT,DTD,Dietachdorf,48.05,14.25
ATDUE,AT,DUE,Dürnstein,48.23,15.31
ATDUR,AT,DUR,Dürnkrut,48.28,16.51
ATDWA,AT,DWA,Deutsch Wagram,48.18,16.34
ATEAJ,AT,EAJ,Elsarn am Jauerling,48.22,15.22
ATEAK,AT,EAK,Etsdorf am Kamp,48.26,15.44
ATEBB,AT,EBB,Ebbs,47.38,12.13
ATEBD,AT,EBD,Ebersdorf,47.12,15.57
ATEBE,AT,EBE,Ebergassing,48.02,16.31
ATEBN,AT,EBN,Eben,47.38,16.05
ATEBR,AT,EBR,Ebreichsdorf,47.57,16.24
ATEBS,AT,EBS,Ebensee,47.48,13.46
ATEBU,AT,EBU,Eggenburg,46.38,15.49
ATEBZ,AT,EBZ,Eberstalzell,48.02,13.58
ATECU,AT,ECU,Lechaschau,47.29,10.42
ATEDZ,AT,EDZ,Edlitz,48.07,15.3
ATEEZ,AT,EEZ,Eisenerz,47.54,14.88
ATEFH,AT,EFH,Ebenfurth,47.52,16.22
ATEFR,AT,EFR,Eferding,48.19,14.01
ATEGB,AT,EGB,Eggelsberg,48.04,12.59
ATEGG,AT,EGG,Egg,47.25,9.53
ATEGL,AT,EGL,Elsbethen Glasenbach,47.2,13.2
ATEGT,AT,EGT,Eggendorf im Traunkreis,48.07,14.08
ATEH7,AT,EH7,Ehrwald,47.24,10.55
ATEHN,AT,EHN,Ernsthofen,48.08,14.29
ATEHR,AT,EHR,Ehrenhausen,46.43,15.34
ATEIN,AT,EIN,Hoflein,48.04,16.47
ATEIT,AT,EIT,Eisenstadt,47.5,16.32
ATEKV,AT,EKV,Eisenkappel-Vellach,46.29,14.35
ATELL,AT,ELL,Edelstal,48.06,16.59
ATEMM,AT,EMM,Emmersdorf an der Donau,48.14,15.2
ATENA,AT,ENA,Enns,48.21,14.47
ATENO,AT,ENO,Ennsdorf,48.12,14.28
ATENZ,AT,ENZ,Enzersdorf an der Fischa,48.05,16.36
ATEPD,AT,EPD,Erpersdorf,48.2,15.54
ATERF,AT,ERF,Eberndorf,46.35,14.38
ATERG,AT,ERG,Angerberg,47.3,12.02
ATERL,AT,ERL,Erl,47.4,12.1
ATERM,AT,ERM,Vordernberg,47.28,15
ATERO,AT,ERO,Engelmannsbrunn,48.27,15.53
ATERP,AT,ERP,Erpfendorf,47.34,12.28
ATERR,AT,ERR,Dobermannsdorf,48.36,16.49
ATESB,AT,ESB,Esternberg,48.33,13.34
ATESG,AT,ESG,Ebenau,47.48,13.11
ATESN,AT,ESN,Eppenstein,47.08,14.44
ATESW,AT,ESW,Eberschwang,48.09,13.34
ATETE,AT,ETE,Stetten,48.22,16.23
ATETH,AT,ETH,Enzersdorf im Thale,48.35,16.14
ATETL,AT,ETL,Ebenthal,48.26,16.47
ATETN,AT,ETN,Eberstein,46.48,14.33
ATETZ,AT,ETZ,Rietz,47.17,11.03
ATEUG,AT,EUG,Eugendorf,47.52,13.07
ATEUH,AT,EUH,Eurenhausen,,
ATEWD,AT,EWD,Eibiswald,46.41,15.5
ATEZF,AT,EZF,Enzesfeld,47.55,16.11
ATFAA,AT,FAA,Frauendorf An Der Au,48.23,15.55
ATFAS,AT,FAS,Fuschl am See,47.48,13.18
ATFAU,AT,FAU,Forstau,47.22,13.32
ATFBB,AT,FBB,Fieberbrunn,47.29,12.33
ATFBG,AT,FBG,Frankenburg,48.04,13.29
ATFBN,AT,FBN,Feuersbrunn,48.26,15.47
ATFBZ,AT,FBZ,Sankt Stefan ob Stainz,46.55,15.15
ATFDG,AT,FDG,Friedburg,48.01,13.14
ATFDU,AT,FDU,Feistritz an der Drau,46.42,13.4
ATFED,AT,FED,Feldbach,46.57,15.53
ATFEK,AT,FEK,Feldkirchen an der Donau,48.21,14.03
ATFEO,AT,FEO,Ferndorf,46.44,13.37
ATFG7,AT,FG7,Achau,48.4,-162.3
ATFGN,AT,FGN,Fügen,47.21,11.51
ATFHK,AT,FHK,Frojach-Katsch,47.07,14.28
ATFHR,AT,FHR,Fehring,46.56,16
ATFIS,AT,FIS,Fischamend Dorf,48.07,16.36
ATFIT,AT,FIT,Feistritz im Rosental,46.31,14.1
ATFKC,AT,FKC,Feldkirchen bei Graz,47.01,15.27
ATFKI,AT,FKI,Feldkirchen im Kärnten,46.43,14.05
ATFKN,AT,FKN,Frauenkirchen,47.5,16.56
ATFKT,AT,FKT,Feldkirch,47.14,9.36
ATFLA,AT,FLA,Flachau,47.2,13.24
ATFLH,AT,FLH,Ferlach,46.52,14.3
ATFLO,AT,FLO,Floridsdorf,48.15,16.24
ATFLT,AT,FLT,Frohnleiten,47.27,15.32
ATFNA,AT,FNA,Freudenau,48.11,16.26
ATFNZ,AT,FNZ,Fernitz,48.33,15.41
ATFOH,AT,FOH,Fohnsdorf,47.12,14.41
ATFOR,AT,FOR,Fornach,48.02,13.26
ATFPS,AT,FPS,Fulpmes,47.09,11.21
ATFRA,AT,FRA,Frauendorf,48.33,14.58
ATFRB,AT,FRB,Freinberg,48.34,13.31
ATFRE,AT,FRE,Fresing,46.45,15.26
ATFRH,AT,FRH,Friesach,46.57,14.25
ATFRI,AT,FRI,Fritzens,47.18,11.35
ATFRN,AT,FRN,Frankenmarkt,47.98,13.41
ATFRT,AT,FRT,Frastanz,47.21,9.63
ATFSA,AT,FSA,Fussach,47.29,9.39
ATFSB,AT,FSB,Fischbach,47.26,15.39
ATFSC,AT,FSC,Fisching,47.1,14.44
ATFSD,AT,FSD,Freistadt,48.3,14.3
ATFST,AT,FST,Feistritz,47.59,16.05
ATFSU,AT,FSU,Faistenau,47.46,13.13
ATFTH,AT,FTH,Furth bei Göttweig,48.37,15.61
ATFTL,AT,FTL,Frauental an der Lassnitz,46.5,15.16
ATFUF,AT,FUF,Fürstenfeld,47.03,16.05
ATFUR,AT,FUR,Fürnitz,46.33,13.49
ATFWG,AT,FWG,Fels am Wagram,48.27,15.49
ATFXO,AT,FXO,Felixdorf,47.53,16.15
ATGA6,AT,GA6,Gamlitz,46.43,15.33
ATGAA,AT,GAA,Gaaden,48.03,16.11
ATGAB,AT,GAB,Gablitz,48.13,16.09
ATGAE,AT,GAE,Golling an der Erlauf,48.12,15.11
ATGAK,AT,GAK,Gars am Kamp,48.35,15.39
ATGAL,AT,GAL,Galtür,46.58,10.11
ATGAN,AT,GAN,Garsten,48.02,14.4
ATGAS,AT,GAS,Gastern,48.53,15.13
ATGBD,AT,GBD,Gabersdorf,46.46,15.35
ATGBF,AT,GBF,Grossebersdorf,48.22,16.28
ATGBG,AT,GBG,Gröbming,47.26,13.54
ATGC5,AT,GC5,Grafenbach,46.45,14.39
ATGDF,AT,GDF,Gerasdorf bei Wien,48.17,16.27
ATGDN,AT,GDN,Gmunden,47.55,13.48
ATGEI,AT,GEI,Eggerding,48.08,13.44
ATGER,AT,GER,Gerersdorf bei Güssing,47.04,16.15
ATGET,AT,GET,Getzersdorf,48.2,15.41
ATGF2,AT,GF2,Schnifis,47.13,9.43
ATGFS,AT,GFS,Greifenstein,48.2,16.14
ATGFT,AT,GFT,Greinsfurth,48.07,14.51
ATGFW,AT,GFW,Grafenworth,48.24,15.47
ATGFZ,AT,GFZ,Gaflenz,47.53,14.43
ATGGM,AT,GGM,Marchegg,48.16,16.54
ATGGS,AT,GGS,Golling an der Salzach,47.36,13.1
ATGGU,AT,GGU,Oggau,47.5,16.4
ATGGZ,AT,GGZ,Gloggnitz,47.4,15.56
ATGHF,AT,GHF,Grosshöflein,47.5,16.29
ATGHH,AT,GHH,Haugsdorf,48.42,16.04
ATGHJ,AT,GHJ,Krustetten,48.22,-154
ATGHR,AT,GHR,Gaishorn am See,47.29,14.33
ATGIE,AT,GIE,Grieskirchen,48.14,13.49
ATGKN,AT,GKN,Gratkorn,47.08,15.2
ATGLA,AT,GLA,Glanegg,46.43,14.11
ATGLD,AT,GLD,Glinzendorf,48.15,16.38
ATGLG,AT,GLG,Grosslobming,47.11,14.48
ATGLI,AT,GLI,Glinzing,48.04,14.32
ATGLO,AT,GLO,Günselsdorf,47.57,16.15
ATGLZ,AT,GLZ,Glanz,46.46,13.39
ATGMA,AT,GMA,Göttlesbrunn-Arbesthal,48.02,16.43
ATGMB,AT,GMB,Gries am Brenner,47.02,11.28
ATGMI,AT,GMI,Gaming,47.56,15.06
ATGMK,AT,GMK,Gmünd In Kärnten,46.54,13.32
ATGMM,AT,GMM,Gummern,46.39,13.47
ATGMU,AT,GMU,Gmünd,48.46,14.59
ATGNA,AT,GNA,Gnas,46.52,15.49
ATGND,AT,GND,Grunddorf,48.25,15.45
ATGNF,AT,GNF,Gänserndorf,48.21,16.44
ATGNR,AT,GNR,Geinberg,48.16,13.15
ATGNS,AT,GNS,Gnesau,46.46,13.58
ATGNZ,AT,GNZ,Granz,48.13,15.09
ATGOE,AT,GOE,Götzis,47.19,9.37
ATGOF,AT,GOF,Gössendorf,46.59,15.29
ATGOL,AT,GOL,Gols,47.54,16.54
ATGOT,AT,GOT,Gotzendorf,47.26,16.09
ATGOW,AT,GOW,Goldwörth,48.2,14.06
ATGPF,AT,GPF,Grosspetersdorf,47.14,16.19
ATGPK,AT,GPK,Gumpoldskirchen,48.02,16.16
ATGPN,AT,GPN,Gampern,47.59,13.33
ATGRA,AT,GRA,Grafenstein,46.36,14.27
ATGRF,AT,GRF,Gosdorf,46.44,15.47
ATGRG,AT,GRG,Grödig,47.44,13.02
ATGRI,AT,GRI,Griffen,46.42,14.44
ATGRL,AT,GRL,Gramatneusiedl,48.01,16.29
ATGRM,AT,GRM,Grossraming,47.53,14.33
ATGRN,AT,GRN,Grein,48.13,14.5
ATGRO,AT,GRO,Grossenzersdorf/Wien,48.12,16.32
ATGRR,AT,GRR,Grobssklein,46.44,15.26
ATGRS,AT,GRS,Geras,48.47,15.4
ATGRT,AT,GRT,Gramastetten,48.23,14.13
ATGRU,AT,GRU,Gross Sankt Florian,46.49,15.19
ATGRZ,AT,GRZ,Graz,47.04,15.27
ATGS2,AT,GS2,Gofis,47.13,9.37
ATGSB,AT,GSB,Gottlesbrunn,48.03,16.44
ATGSD,AT,GSD,Gleisdorf,47.1,15.71
ATGSF,AT,GSF,Gaspoltshofen,48.08,13.44
ATGSG,AT,GSG,Gösing,48.28,15.49
ATGSH,AT,GSH,Gross-Siegharts,48.47,15.24
ATGSN,AT,GSN,Gutenstein,47.52,15.53
ATGSS,AT,GSS,Güssing,47.04,16.2
ATGST,AT,GST,Gleinstätten,46.45,15.22
ATGSU,AT,GSU,Grossschönau,48.39,14.56
ATGTD,AT,GTD,Gattendorf,48.01,16.59
ATGTL,AT,GTL,Grossriedenthal,48.29,155.2
ATGTN,AT,GTN,Gresten,47.59,15.01
ATGTR,AT,GTR,Geretsberg,48.05,12.56
ATGTW,AT,GTW,Gratwein,47.07,15.19
ATGUK,AT,GUK,Gunskirchen,48.08,13.56
ATGUN,AT,GUN,Guntramsdorf,48.02,16.18
ATGUT,AT,GUT,Gurten,48.15,13.2
ATGWD,AT,GWD,Grosswiesendorf,48.27,15.59
ATGWF,AT,GWF,Grossweikersdorf,48.28,15.59
ATGZR,AT,GZR,Gross Gerungs,48.35,14.57
ATGZS,AT,GZS,Grinzens,47.13,11.15
ATH3H,AT,H3H,Hohenwarth,47.56,15.59
ATHAB,AT,HAB,Haibach,48.24,13.55
ATHAC,AT,HAC,Haugschlag,48.59,15.03
ATHAD,AT,HAD,Haid,48.58,14.96
ATHAE,AT,HAE,Haringsee,48.11,16.47
ATHAG,AT,HAG,Haag,48.07,14.34
ATHAH,AT,HAH,Haag am Hausruck,48.11,13.38
ATHAL,AT,HAL,Hall,47.36,14.27
ATHAR,AT,HAR,Harmannsdorf,48.24,16.18
ATHAU,AT,HAU,Hohenau an der March,48.6,16.9
ATHBG,AT,HBG,Handenberg,48.08,13.01
ATHBH,AT,HBH,Hobenbach,48.21,15.39
ATHBL,AT,HBL,Hinterbrühl,48.05,16.14
ATHBR,AT,HBR,Höhenberg,47.54,15.37
ATHBZ,AT,HBZ,Hörbranz,47.33,9.45
ATHCH,AT,HCH,Haslach,48.25,14.4
ATHDR,AT,HDR,Hofstatten An Der Raab,47.04,15.44
ATHDT,AT,HDT,Hofkirchen an der Trattnach,48.13,13.44
ATHEC,AT,HEC,Heidenreichstein,48.51,15.06
ATHED,AT,HED,Herzogsdorf,48.26,14.07
ATHEI,AT,HEI,Heiligenkreuz,48.18,15.47
ATHEL,AT,HEL,Helfenberg,48.32,14.08
ATHEO,AT,HEO,Henndorf am Wallersee,47.54,13.11
ATHER,AT,HER,Herzogenburg,48.16,15.41
ATHFL,AT,HFL,Hieflau,47.36,14.44
ATHFN,AT,HFN,Hofen,47.34,10.27
ATHFS,AT,HFS,Heinfels,46.45,12.27
ATHGB,AT,HGB,Hagenbrunn,48.2,16.24
ATHHG,AT,HHG,Hirschegg,47.2,10.1
ATHHN,AT,HHN,Haidershofen,48.04,14.27
ATHIA,AT,HIA,Hainburg,48.08,16.56
ATHIG,AT,HIG,Hirschwang,47.42,15.49
ATHIH,AT,HIH,Hoheneich,48.46,15.01
ATHIM,AT,HIM,Hilm,48.01,14.45
ATHIR,AT,HIR,Hirschegg Rein,47.01,14.55
ATHIT,AT,HIT,Hall in Tirol,47.17,11.31
ATHKM,AT,HKM,Hadersdorf-Kammern,48.27,15.43
ATHKN,AT,HKN,Hartkirchen,48.21,14
ATHKR,AT,HKR,Heiligenkreuz,48.03,16.08
ATHKZ,AT,HKZ,Heiligenkreuz,47.52,14.07
ATHLB,AT,HLB,Hollersbach,47.28,15.29
ATHLD,AT,HLD,Muhldorf,48.22,15.21
ATHLG,AT,HLG,Hallwang,47.51,13.05
ATHLL,AT,HLL,Hallein,47.68,13.09
ATHLM,AT,HLM,Haslach an der Mühl,48.35,14.02
ATHLT,AT,HLT,Hallstatt,47.33,13.39
ATHLZ,AT,HLZ,Holzberg,47.02,15.19
ATHMD,AT,HMD,Hetzmannsdorf,48.26,16.24
ATHME,AT,HME,Hausmenning,48.04,14.48
ATHMG,AT,HMG,Hermagor,46.62,13.37
ATHMN,AT,HMN,Hausmannstätten,46.59,15.31
ATHNN,AT,HNN,Hennersdorf,48.06,16.22
ATHNT,AT,HNT,Hofkirchen im Traunkreis,48.08,14.22
ATHOC,AT,HOC,Hochfilzen,47.28,12.37
ATHOF,AT,HOF,Hopfgarten,47.38,13.51
ATHOG,AT,HOG,Hönigsberg,47.36,15.38
ATHOH,AT,HOH,Hohenems,47.22,9.41
ATHOL,AT,HOL,Hollabrunn,48.54,16.07
ATHOM,AT,HOM,Hofkirchen im Mühlkreis,48.29,13.48
ATHON,AT,HON,Hohenruppersdorf,48.28,16.39
ATHOP,AT,HOP,Hopfgarten im Brixental,47.27,12.1
ATHOR,AT,HOR,Horn,48.39,15.39
ATHOT,AT,HOT,Horitschon,47.35,16.33
ATHRD,AT,HRD,Hard,47.48,9.69
ATHRH,AT,HRH,Hörsching,48.14,14.11
ATHRM,AT,HRM,Hirm,47.47,16.28
ATHRS,AT,HRS,Hadres,48.42,16.07
ATHRT,AT,HRT,Hartl,47.11,15.55
ATHSE,AT,HSE,Hornstein,47.52,16.26
ATHSN,AT,HSN,Hansenhütte,,
ATHST,AT,HST,Höchst,47.27,9.37
ATHTA,AT,HTA,Hartberg,47.16,15.58
ATHTE,AT,HTE,Hirtenberg,47.55,16.1
ATHTZ,AT,HTZ,Hitzendorf,47.02,15.15
ATHUT,AT,HUT,Huttau,47.25,13.18
ATHZD,AT,HZD,Haitzendorf,48.26,15.44
ATHZF,AT,HZF,Hötzelsdorf,48.46,15.39
ATHZL,AT,HZL,Heiligenkreuz im Lafnitztal,46.59,16.15
ATICH,AT,ICH,Bad Ischl,47.42,13.36
ATIEG,AT,IEG,Limberg,48.35,15.52
ATIIK,AT,IIK,Inzersdorf Im Kremstal,47.55,14.04
ATILL,AT,ILL,Illmitz,47.46,16.48
ATILZ,AT,ILZ,Ilz,47.05,15.55
ATIMS,AT,IMS,Imst,47.14,10.44
ATINN,AT,INN,Innsbruck,47.16,11.24
ATINZ,AT,INZ,Inzing,47.16,11.12
ATIST,AT,IST,Satteins,47.13,9.4
ATITN,AT,ITN,Hausleiten,48.23,16.06
ATITR,AT,ITR,Itter,47.28,12.03
ATITT,AT,ITT,Itterdörfl,47.27,12.08
ATIZG,AT,IZG,Innermanzing,48.08,15.54
ATJDB,AT,JDB,Judenberg,47.09,14.4
ATJDD,AT,JDD,Judendorf,47.07,15.21
ATJDF,AT,JDF,Jennersdorf,46.56,16
ATJDN,AT,JDN,Judenburg,47.16,14.66
ATJEG,AT,JEG,Jeging,48.03,13.08
ATJEN,AT,JEN,Jenbach,47.23,11.46
ATJGE,AT,JGE,Jagerberg,46.51,15.44
ATJOA,AT,JOA,Sankt Johann im Pongau,47.21,13.12
ATJOC,AT,JOC,Joching,48.23,15.27
ATJOH,AT,JOH,Sankt Johann in Tirol,47.31,12.25
ATJOS,AT,JOS,Jois,47.58,16.48
ATJPS,AT,JPS,Japons,48.47,15.34
ATJSS,AT,JSS,Jöss,46.5,15.3
ATJUN,AT,JUN,Jungholz,47.57,10.44
ATJZS,AT,JZS,Jerzens,47.09,10.44
ATK2R,AT,K2R,Karlstetten,48.15,15.34
ATK8B,AT,K8B,Kleinhoflein,47.5,16.3
ATKAB,AT,KAB,Kaltenbach,47.17,11.52
ATKAD,AT,KAD,Kirchberg an der Raab,46.59,15.46
ATKAF,AT,KAF,Katzelsdorf,46.55,15.5
ATKAL,AT,KAL,Kallham,48.17,13.43
ATKAM,AT,KAM,Kammern im Liesingtal,47.24,14.54
ATKAN,AT,KAN,Krems an der Donau,48.25,15.37
ATKAP,AT,KAP,Kaprun,47.16,12.46
ATKAR,AT,KAR,Karlsdorf,46.5,13.28
ATKAT,AT,KAT,Riegersdorf,46.54,137.84
ATKAW,AT,KAW,Königsbrunn am Wagram,48.25,15.56
ATKBA,AT,KBA,Kirchbach,47.57,157.32
ATKBF,AT,KBF,Kobersdorf,47.36,16.24
ATKBG,AT,KBG,Korneuburg,48.34,16.33
ATKBW,AT,KBW,Kirchberg am Wagram,48.26,15.54
ATKBZ,AT,KBZ,Kolbnitz,46.53,13.18
ATKCH,AT,KCH,Klöch,46.46,15.58
ATKDF,AT,KDF,Kalsdorf,46.96,15.48
ATKDM,AT,KDM,Kraubath an der Mur,47.3,14.93
ATKDO,AT,KDO,Kammersdorf,48.37,16.14
ATKDT,AT,KDT,Kleinriedenthal,48.45,16.01
ATKEU,AT,KEU,Kötschach-Mauthen,46.4,13
ATKFB,AT,KFB,Kapfenberg,47.44,15.29
ATKFD,AT,KFD,Knittelfeld,47.12,14.49
ATKFH,AT,KFH,Köflach,47.03,15.04
ATKFM,AT,KFM,Kefermarkt,48.26,14.32
ATKFS,AT,KFS,Kufstein,47.58,12.16
ATKFT,AT,KFT,Kirchdorf in Tirol,47.34,12.27
ATKGA,AT,KGA,Krenglbach,48.12,13.57
ATKGI,AT,KGI,Kopfing im Innkreis,48.26,13.39
ATKHH,AT,KHH,Kirchham,47.58,13.54
ATKHO,AT,KHO,Klaffer,48.42,13.53
ATKHS,AT,KHS,Kleinharras,48.27,16.37
ATKIE,AT,KIE,Kienberg,48.59,15.4
ATKIF,AT,KIF,Kleinwiesendorf,48.27,15.59
ATKII,AT,KII,Kirchheim im Innkreis,48.12,13.23
ATKIN,AT,KIN,Kindberg,47.3,15.27
ATKIR,AT,KIR,Kirchberg am Walde,48.43,15.05
ATKIT,AT,KIT,Kitzbuhel,47.27,12.23
ATKKM,AT,KKM,Kirchdorf an der Krems,47.54,14.07
ATKL4,AT,KL4,Kollerschlag,48.36,13.5
ATKLA,AT,KLA,Klaus,47.19,9.39
ATKLD,AT,KLD,Kröllendorf,48.04,14.79
ATKLG,AT,KLG,Sankt Katharein an der Laming,47.28,15.08
ATKLH,AT,KLH,Kleinreichenbach,48.46,15.15
ATKLU,AT,KLU,Klagenfurt,46.37,14.18
ATKLZ,AT,KLZ,Kirchschlag bei Linz,48.24,14.16
ATKMB,AT,KMB,Krummnussbaum,48.13,15.1
ATKME,AT,KME,Kemeten,47.14,16.09
ATKMG,AT,KMG,Kemating,48.04,13.83
ATKMK,AT,KMK,Kematen an der Krems,48.06,14.11
ATKMN,AT,KMN,Krems in Kärnten,46.55,13.34
ATKMR,AT,KMR,Kumberg,47.1,15.32
ATKMS,AT,KMS,Kremsmünster,48.05,14.12
ATKN8,AT,KN8,Sankt Lorenzen bei Knittelfeld,47.15,14.53
ATKNB,AT,KNB,Kennelbach,47.47,9.76
ATKNR,AT,KNR,Kottingbrunn,47.56,16.13
ATKNS,AT,KNS,Kleinneusiedl,48.05,16.36
ATKOB,AT,KOB,Koblach,47.19,9.36
ATKOE,AT,KOE,Köstendorf,47.57,13.11
ATKOG,AT,KOG,Koglhof,47.19,15.41
ATKOH,AT,KOH,Kohfidisch,47.1,16.21
ATKOL,AT,KOL,Kolsass,47.17,11.38
ATKOP,AT,KOP,Koppl,47.48,13.1
ATKOS,AT,KOS,Kössen,47.4,12.24
ATKOT,AT,KOT,Kottes,48.25,15.18
ATKPL,AT,KPL,Kappl,47.03,10.22
ATKPO,AT,KPO,Kleinpöchlarn,48.13,15.13
ATKRE,AT,KRE,Krems,47.02,15.11
ATKRI,AT,KRI,Krieglach,47.32,15.33
ATKRL,AT,KRL,Kirchbichl,47.31,12.05
ATKRM,AT,KRM,Kleinraming,48.01,14.3
ATKRO,AT,KRO,Krobotek,46.58,16.11
ATKRS,AT,KRS,Kramsach,47.27,11.52
ATKRZ,AT,KRZ,Kritzendorf,48.2,16.18
ATKSE,AT,KSE,Kittsee,48.05,17.04
ATKSP,AT,KSP,Klein Sankt Paul,46.5,14.32
ATKSS,AT,KSS,Kitzeck im Sausal,46.46,15.26
ATKST,AT,KST,Kronstorf,48.08,14.27
ATKTE,AT,KTE,Kirchstetten,48.11,15.49
ATKTF,AT,KTF,Krottendorf,47.27,15.2
ATKTN,AT,KTN,Königstetten,48.18,16.08
ATKTT,AT,KTT,Kematen in Tirol,47.15,11.16
ATKTU,AT,KTU,Klosterneuburg,48.18,16.19
ATKUB,AT,KUB,Krumbach Markt,47.31,16.11
ATKUC,AT,KUC,Kuchl,47.37,13.08
ATKUD,AT,KUD,Kühnsdorf,46.37,14.38
ATKUN,AT,KUN,Kundl,47.28,11.59
ATKYB,AT,KYB,Kematen Ybbs,48.04,14.76
ATKZL,AT,KZL,Kleinzell,47.59,15.45
ATLAA,AT,LAA,Laa an der Thaya,48.43,16.23
ATLAB,AT,LAB,Lambrechten,48.19,13.31
ATLAG,AT,LAG,Langenlois,48.28,15.4
ATLAM,AT,LAM,Oberlamm,46.59,16.03
ATLAN,AT,LAN,Landeck,47.08,10.33
ATLAS,AT,LAS,Lassing,47.44,14.53
ATLAU,AT,LAU,Launsdorf,46.76,144.54
ATLBD,AT,LBD,Leobersdorf,47.55,16.13
ATLBE,AT,LBE,Leiben,48.14,15.16
ATLBN,AT,LBN,Leoben,47.38,15.09
ATLBU,AT,LBU,Lindabrunn,47.54,16.1
ATLCH,AT,LCH,Lochen,48.01,13.11
ATLCK,AT,LCK,Lackenbach,47.35,16.28
ATLCU,AT,LCU,Lochau,47.52,9.75
ATLDG,AT,LDG,Leonding,48.16,14.14
ATLDO,AT,LDO,Ladendorf,48.32,16.29
ATLEB,AT,LEB,Lebring,46.51,15.32
ATLEC,AT,LEC,Lech,47.2,10.14
ATLEI,AT,LEI,Leibnitz,46.47,15.32
ATLEN,AT,LEN,Lend,47.17,13.02
ATLEO,AT,LEO,Leobendorf,48.22,16.18
ATLEZ,AT,LEZ,Lienz,48.3,14.28
ATLFD,AT,LFD,Längenfeld,47.07,10.97
ATLFT,AT,LFT,Sankt Leonhard am Forst,48.08,15.17
ATLGE,AT,LGE,Langenlebarn,48.2,16.07
ATLGN,AT,LGN,Lengenfeld,48.28,15.36
ATLGR,AT,LGR,Langenrohr,48.18,16
ATLGU,AT,LGU,Lengau,48,13.13
ATLGW,AT,LGW,Langenwang,47.34,15.37
ATLIB,AT,LIB,Lieboch,46.58,15.2
ATLIW,AT,LIW,Lichtenau im Waldviertel,48.3,15.23
ATLKI,AT,LKI,Laakirchen,47.58,13.49
ATLKN,AT,LKN,Falkenstein,48.43,13.35
ATLL6,AT,LL6,Pollau,47.13,15.22
ATLLF,AT,LLF,Lilienfeld,48.01,15.38
ATLLG,AT,LLG,Hollenburg,48.22,15.41
ATLMB,AT,LMB,Lambach,48.09,13.87
ATLMU,AT,LMU,Sankt Lorenzen im Mürztal,47.29,15.22
ATLNH,AT,LNH,Lannach,46.56,15.2
ATLNT,AT,LNT,Lavant,46.47,12.5
ATLNZ,AT,LNZ,Linz,48.18,14.18
ATLOB,AT,LOB,Lohnsburg,48.08,13.24
ATLOE,AT,LOE,Lobendorf,48.26,15.25
ATLOF,AT,LOF,Lofer,47.35,12.41
ATLOI,AT,LOI,Loimersdorf,48.1,16.5
ATLP4,AT,LP4,Leithaprodersdorf,47.56,16.29
ATLPB,AT,LPB,Loipersbach,47.43,19.07
ATLPD,AT,LPD,Loipersdorf,48.08,15.21
ATLPO,AT,LPO,Leopoldsdorf (Wien),48.07,16.24
ATLPS,AT,LPS,Lamprechtshausen,47.59,12.57
ATLRR,AT,LRR,Lieserbruecke,46.5,13.29
ATLSD,AT,LSD,Loosdorf,48.12,15.24
ATLSH,AT,LSH,Litschau,48.56,15.03
ATLSN,AT,LSN,Langenstein,48.15,14.28
ATLTD,AT,LTD,Leutzmannsdorf,48.07,14.57
ATLTF,AT,LTF,Langkampfen,47.33,12.06
ATLTG,AT,LTG,Lichtenberg,48.47,15.19
ATLTH,AT,LTH,Leutasch,47.22,11.09
ATLTN,AT,LTN,Lustenau,47.42,9.65
ATLTS,AT,LTS,Leutschach,46.4,15.28
ATLTX,AT,LTX,Hainfeld,48.02,15.46
ATLTZ,AT,LTZ,Lutzmannsburg,47.28,16.38
ATLUA,AT,LUA,Lembach,48.29,13.53
ATLUT,AT,LUT,Lauterach,47.47,9.72
ATLUW,AT,LUW,Ludersdorf-Wilfersdorf,47.06,15.4
ATLWN,AT,LWN,Langwiesen,46.54,14.17
ATLXE,AT,LXE,Laxenburg,48.04,16.21
ATLZD,AT,LZD,Langenzersdorf,48.18,16.21
ATLZF,AT,LZF,Lanzendorf,48.06,16.26
ATLZG,AT,LZG,Lenzing,47.97,13.6
ATLZN,AT,LZN,Liezen,47.56,14.24
ATMA5,AT,MA5,Maria Alm am Steinernen Meer,47.24,12.54
ATMAB,AT,MAB,Marbach an der Donau,48.13,15.09
ATMAI,AT,MAI,Mühlheim,48.17,13.13
ATMAK,AT,MAK,Micheldorf am Kienberge,47.51,14.08
ATMAL,AT,MAL,Mannersdorf am Leithagebirge,47.58,16.36
ATMAM,AT,MAM,Margarethen am Moos,48.02,16.36
ATMAN,AT,MAN,Manning,48.05,13.4
ATMAR,AT,MAR,Marktl,48.01,15.35
ATMAS,AT,MAS,Maria Saal,46.4,14.2
ATMAT,AT,MAT,Mattersburg,47.44,16.23
ATMAU,AT,MAU,Mauthausen,48.14,14.31
ATMBG,AT,MBG,Möderbrugg,47.17,14.29
ATMBH,AT,MBH,Mauerbach,48.15,16.1
ATMBK,AT,MBK,Mollbrucke,46.5,13.22
ATMBR,AT,MBR,Matrei am Brenner,47.08,11.27
ATMBS,AT,MBS,Morbisch am See,47.45,16.4
ATMCD,AT,MCD,Micheldorf in Oberösterreich,47.52,14.08
ATMCF,AT,MCF,Micheldorf,46.37,13.24
ATMDF,AT,MDF,"Mollersdorf, Tull an der Donau",48.22,16
ATMDG,AT,MDG,Munderfing,48.04,13.11
ATMDO,AT,MDO,Mariasdorf,47.22,16.13
ATMDR,AT,MDR,Mäder,47.21,9.37
ATMDS,AT,MDS,Madstein,47.22,15
ATMEE,AT,MEE,Mehrnbach,48.13,13.26
ATMEI,AT,MEI,Meiselding,46.5,14.24
ATMEL,AT,MEL,Melk,48.22,15.33
ATMEN,AT,MEN,Maria Enzersdorf,48.06,16.17
ATMER,AT,MER,Merchtrenk,48.11,14.06
ATMGL,AT,MGL,Markgrafneusiedl,48.16,16.38
ATMGN,AT,MGN,Meggenhofen,48.11,13.48
ATMHE,AT,MHE,Münichreith,48.16,15.08
ATMHF,AT,MHF,Mönchhof,47.53,16.57
ATMHK,AT,MHK,Mauerkirchen,48.18,13.13
ATMIC,AT,MIC,Michelbach,48.05,15.45
ATMIF,AT,MIF,Micheldorf in Kärnten,,
ATMIK,AT,MIK,Miklauzhof,46.53,14.59
ATMIL,AT,MIL,Mils,47.17,11.31
ATMIS,AT,MIS,Mistelbach,48.14,14.04
ATMIT,AT,MIT,Mittelberg,47.32,10.15
ATMIX,AT,MIX,Mixnitz,47.19,15.21
ATMKA,AT,MKA,Markt Allhau,47.14,16.05
ATMKC,AT,MKC,Mitterkirchen,48.11,14.42
ATMLA,AT,MLA,Mellau,47.21,9.52
ATMLB,AT,MLB,Mailberg,48.4,16.11
ATMLD,AT,MLD,"Mollersdorf, Baden",48.01,16.18
ATMLH,AT,MLH,Mallersbach,48.5,15.48
ATMLJ,AT,MLJ,Maria Laach am Jauerling,48.18,15.2
ATMLL,AT,MLL,Mollands,48.31,15.41
ATMLN,AT,MLN,Michelhausen,48.17,15.56
ATMLS,AT,MLS,Mittersill,47.16,12.28
ATMML,AT,MML,Mitterdorf im Murztal,47.32,15.31
ATMMZ,AT,MMZ,Sankt Marein im Mürztal,47.28,15.22
ATMNG,AT,MNG,Mandling,47.24,13.34
ATMNN,AT,MNN,Mannersdorf an der March,48.23,16.5
ATMNO,AT,MNO,Müllendorf,47.51,16.28
ATMOE,AT,MOE,Mödling,48.04,16.17
ATMOF,AT,MOF,Mürzhofen,47.29,15.23
ATMON,AT,MON,Mondsee,47.51,13.21
ATMOO,AT,MOO,Moosbrunn,48.1,16.27
ATMPI,AT,MPI,Markt Piesting,47.52,16.08
ATMR2,AT,MR2,Maria Rain,46.33,14.17
ATMRC,AT,MRC,Marchtrenk,48.11,14.07
ATMRH,AT,MRH,Mayrhofen,47.1,11.52
ATMRZ,AT,MRZ,Marz,47.43,16.25
ATMSB,AT,MSB,Mettersdorf Am Sassbach,46.48,15.42
ATMSD,AT,MSD,Messendorf,47.02,15.29
ATMSF,AT,MSF,Martinsdorf,48.28,16.38
ATMSN,AT,MSN,Maishofen,47.22,12.48
ATMSS,AT,MSS,Missingdorf,48.41,15.48
ATMST,AT,MST,Millstatt,46.48,13.34
ATMTB,AT,MTB,Mitterberghutten,47.24,13.13
ATMTF,AT,MTF,Mauterndorf,47.08,13.4
ATMTH,AT,MTH,Mattighofen,48.1,13.15
ATMTI,AT,MTI,Sankt Martin im Innkreis,48.17,13.26
ATMTK,AT,MTK,Mautern in Steiermark,47.24,14.5
ATMTN,AT,MTN,Mautern,48.23,15.35
ATMTS,AT,MTS,Mattsee,47.58,13.06
ATMTZ,AT,MTZ,Matzen,48.24,16.42
ATMUC,AT,MUC,Mureck,46.42,15.46
ATMUD,AT,MUD,Mautern an der Donau,48.23,15.34
ATMUE,AT,MUE,Münchendorf,48.01,16.22
ATMUN,AT,MUN,Münzkirchen,48.48,13.57
ATMUQ,AT,MUQ,Murstetten,48.14,15.49
ATMUR,AT,MUR,Murau,47.06,14.1
ATMW3,AT,MW3,Mannswörth,48.09,16.31
ATMZH,AT,MZH,Münzbach,48.16,14.42
ATMZL,AT,MZL,Mariazell,47.46,15.19
ATMZZ,AT,MZZ,Mürzzuschlag,47.36,15.4
ATN9F,AT,N9F,Niederabsdorf,48.34,16.51
ATNAA,AT,NAA,Naarn,48.13,14.36
ATNAD,AT,NAD,Neuhofen an der Ybbs,48.03,14.51
ATNAH,AT,NAH,Nussdorf am Haunsberg,47.58,13.01
ATNAL,AT,NAL,Allhartsberg,48.01,14.47
ATNAS,AT,NAS,Neusiedl am See,47.56,16.5
ATNAT,AT,NAT,Nussdorf an der Traisen,48.21,15.42
ATNAZ,AT,NAZ,Neusiedl an der Zaya,48.38,16.48
ATNBA,AT,NBA,Nussbach,47.58,14.1
ATNBI,AT,NBI,Neudorf bei Ilz,47.05,15.57
ATND2,AT,ND2,Nickelsdorf,47.56,17.04
ATNDF,AT,NDF,Niederndorf,48.1,15.11
ATNDL,AT,NDL,Neustift an der Lafnitz,47.22,16.02
ATNE2,AT,NE2,Obermarkersdorf,48.44,15.53
ATNEB,AT,NEB,Ebersbrunn,48.31,15.52
ATNEC,AT,NEC,Neckenmarkt,47.36,16.33
ATNEH,AT,NEH,Neulengbach,48.1,15.58
ATNEK,AT,NEK,Neuhofen an der Krems,48.08,14.13
ATNEL,AT,NEL,Neudörfl,47.47,16.18
ATNEM,AT,NEM,Neustift im Mühlkreis,48.32,13.45
ATNES,AT,NES,Neusiedl,48.35,15.69
ATNET,AT,NET,Nettingsdorf,48.1,14.15
ATNEU,AT,NEU,Neubau,48.3,16.31
ATNEZ,AT,NEZ,Nenzing,47.1,9.41
ATNFN,AT,NFN,Neufelden,48.29,13.59
ATNGG,AT,NGG,Neudegg,48.29,15.53
ATNGZ,AT,NGZ,Nestelbach bei Graz,47.03,15.37
ATNHN,AT,NHN,Niederhollabrunn,48.26,16.18
ATNHR,AT,NHR,Neumarkt im Hausruckkreis,48.16,13.42
ATNID,AT,NID,Niederleis,48.33,16.24
ATNIE,AT,NIE,Niederottnang,48.06,13.4
ATNII,AT,NII,Neuhofen im Innkreis,48.11,13.28
ATNIK,AT,NIK,Niederkappel,48.28,13.53
ATNIS,AT,NIS,Stronsdorf,48.39,16.17
ATNIW,AT,NIW,Niederwölz,47.09,14.22
ATNKB,AT,NKB,Neuhaus am Klausenbach,46.52,16.02
ATNKD,AT,NKD,Niklasdorf,47.23,15.09
ATNKN,AT,NKN,Neunkirchen,47.43,16.05
ATNLA,AT,NLA,Lanzenkirchen,47.44,16.14
ATNMK,AT,NMK,Neumarkt im Mühlkreis,48.25,14.29
ATNMN,AT,NMN,Niederranna,48.28,13.48
ATNNE,AT,NNE,Brunnenthal,48.28,13.27
ATNNN,AT,NNN,Donnerskirchen,47.54,16.38
ATNPK,AT,NPK,Neupirka,47,15.25
ATNRF,AT,NRF,Wultendorf,48.4,16.28
ATNRR,AT,NRR,Niederrussbach,48.27,16.02
ATNSD,AT,NSD,Nussdorf,47.13,14.28
ATNSL,AT,NSL,Niedernsill,47.28,12.64
ATNSM,AT,NSM,Neustadtl Markt,48.11,14.55
ATNT3,AT,NT3,Seyring,48.2,16.29
ATNT9,AT,NT9,Muthmannsdorf,47.5,16.06
ATNTA,AT,NTA,Neutal,47.32,16.26
ATNUA,AT,NUA,Neudau,47.17,16.09
ATNUF,AT,NUF,Neufeld an der Leitha,47.52,16.22
ATNUZ,AT,NUZ,Nüziders,47.11,9.48
ATNVC,AT,NVC,Neukirchen an der Vöckla,48.02,13.32
ATNWK,AT,NWK,Niederwaldkirchen,48.27,14.04
ATNWR,AT,NWR,Lichtenworth,47.5,16.17
ATNWS,AT,NWS,Neumarkt am Wallersee,47.57,13.14
ATNYB,AT,NYB,Neumarkt and der Ybbs,48.08,15.03
ATNZG,AT,NZG,Neuzeug,48.03,14.2
ATOAD,AT,OAD,Orth an der Donau,48.08,16.42
ATOAL,AT,OAL,Oneal,,
ATOAM,AT,OAM,Oberndorf an der Melk,48.03,15.13
ATOBE,AT,OBE,Oberpullendorf,47.29,16.3
ATOBG,AT,OBG,Obergrafendorf,48.08,15.32
ATOBH,AT,OBH,Oberstrahlbach,48.37,15.06
ATOBM,AT,OBM,Moosdorf,48.03,12.59
ATOBR,AT,OBR,Oberndorf bei Salzburg,47.56,12.56
ATOBU,AT,OBU,Oberneukirchen,48.46,14.22
ATOBW,AT,OBW,Oberweis,47.57,13.49
ATOCH,AT,OCH,Holzhausen,48.13,14.05
ATOCW,AT,OCW,Winkel,48.1,15.28
ATODT,AT,ODT,Oberndorf in Tirol,47.3,12.23
ATOED,AT,OED,Oed,48.23,15.08
ATOFC,AT,OFC,Obere Fellach,46.38,13.49
ATOHD,AT,OHD,Obdach,47.06,14.69
ATOHI,AT,OHI,Oberhofen am Irrsee,47.57,13.18
ATOHO,AT,OHO,Hohenzell,48.11,13.32
ATOIN,AT,OIN,Ort im Innkreis,48.18,13.26
ATOLL,AT,OLL,Molln,47.52,14.16
ATOLS,AT,OLS,Ohlsdorf,47.57,13.47
ATOMB,AT,OMB,Oberalm,47.42,13.06
ATOOT,AT,OOT,Oepping,48.36,13.56
ATORB,AT,ORB,Oberrohrbach,48.24,16.18
ATORF,AT,ORF,Gödersdorf,46.34,13.51
ATORH,AT,ORH,Oberaich,47.24,15.13
ATORI,AT,ORI,Oftering,48.14,14.08
ATORT,AT,ORT,Ortmann,47.54,15.58
ATOSF,AT,OSF,Ollersdorf,48.24,16.48
ATOSH,AT,OSH,Ottensheim,48.2,14.11
ATOSK,AT,OSK,Oberstinkenbrunn,48.37,16.09
ATOSZ,AT,OSZ,Oberschützen,47.21,16.12
ATOTN,AT,OTN,Obertraun,47.33,13.41
ATOTT,AT,OTT,Pottsching,47.48,16.23
ATOWD,AT,OWD,Oberwaltersdorf,47.59,16.19
ATOWG,AT,OWG,Oberwagram,48.12,15.41
ATOWN,AT,OWN,Oberwang,47.52,13.26
ATOWT,AT,OWT,Oberwart,47.28,16.21
ATOYH,AT,OYH,Oyenhausen,47.59,16.17
ATOZB,AT,OZB,Ötztal-Bahnhof,47.14,10.51
ATPAL,AT,PAL,Paldau,46.56,15.47
ATPAM,AT,PAM,Pamhagen,47.42,16.55
ATPAS,AT,PAS,Podersdorf am See,47.51,16.5
ATPAT,AT,PAT,Palt,48.37,15.33
ATPBK,AT,PBK,Prambachkirchen,48.19,13.55
ATPBM,AT,PBM,Pressbaum,48.11,16.05
ATPBN,AT,PBN,Purbach am Neusiedlersee,47.54,16.41
ATPBU,AT,PBU,Persenbeug,48.11,15.04
ATPDF,AT,PDF,Parndorf,47.99,16.86
ATPDG,AT,PDG,Preding,47.11,15.39
ATPDO,AT,PDO,Pöttelsdorf,47.45,16.26
ATPEB,AT,PEB,Pettenbach,47.57,14.01
ATPEC,AT,PEC,Petronell-Carnuntum,48.07,16.51
ATPEG,AT,PEG,Peggau,47.12,15.21
ATPER,AT,PER,Perg,48.25,14.63
ATPET,AT,PET,Petzenkirchen,48.08,15.09
ATPFA,AT,PFA,Pfaffstätten,48.01,16.16
ATPFD,AT,PFD,Pinkafeld,47.22,16.07
ATPFF,AT,PFF,Pfaffenhofen,47.18,11.05
ATPFZ,AT,PFZ,Prinzendorf an der Zaya,48.36,16.43
ATPGG,AT,PGG,Pinggau,47.26,16.03
ATPGM,AT,PGM,Pernegg an der Mur,47.21,15.21
ATPGN,AT,PGN,Pregarten,48.21,14.31
ATPGO,AT,PGO,Poggersdorf,46.39,14.27
ATPHG,AT,PHG,Pasching,48.25,14.2
ATPID,AT,PID,Plainfeld,47.5,13.11
ATPIS,AT,PIS,Pischeldorf,46.41,14.27
ATPK6,AT,PK6,Pischelsdorf in Steiermark,47.1,15.48
ATPKG,AT,PKG,Pucking,48.11,14.11
ATPKU,AT,PKU,Pulkau,48.42,15.51
ATPLA,AT,PLA,Platt,48.4,15.57
ATPLE,AT,PLE,Purgstall an der Erlauf,48.03,15.08
ATPLH,AT,PLH,Pillichsdorf,48.21,16.32
ATPLL,AT,PLL,Pill,47.19,11.4
ATPLS,AT,PLS,Pöls,47.13,14.34
ATPND,AT,PND,Piesendorf,47.17,12.43
ATPNT,AT,PNT,Pernitz,47.53,15.57
ATPO2,AT,PO2,Pollauberg,47.19,15.51
ATPO4,AT,PO4,Pennewang,48.08,13.51
ATPOB,AT,POB,Poysbrunn,48.43,16.37
ATPOE,AT,POE,Pöchlarn,48.12,15.13
ATPOF,AT,POF,Pinsdorf,47.55,13.46
ATPOG,AT,POG,Pöggstall,48.19,15.11
ATPOL,AT,POL,Polten,46.44,15.58
ATPOT,AT,POT,Prottes,48.23,16.44
ATPOY,AT,POY,Poysdorf,48.4,16.38
ATPP3,AT,PP3,Eggendorf,48.22,15.38
ATPRA,AT,PRA,Pramet,48.08,13.29
ATPRB,AT,PRB,Peuerbach,48.2,13.46
ATPRD,AT,PRD,Pernersdorf,48.42,16.01
ATPRF,AT,PRF,Pischelsdorf,48.2,15.56
ATPRH,AT,PRH,Pernhofen,48.72,16.28
ATPRL,AT,PRL,Proleb,47.24,15.08
ATPRM,AT,PRM,Pram,48.14,13.37
ATPRT,AT,PRT,Preitenegg,46.56,14.55
ATPSB,AT,PSB,Pessaberg,46.49,15.4
ATPSM,AT,PSM,Pischelsdorf In Der Steiermark,47.1,15.48
ATPSS,AT,PSS,Passail,47.17,15.31
ATPST,AT,PST,Pistorf,46.46,15.22
ATPTF,AT,PTF,Perchtoldsdorf,48.07,16.16
ATPTG,AT,PTG,Palting,48.01,13.08
ATPTH,AT,PTH,Perwarth,48.01,14.59
ATPTT,AT,PTT,Pottendorf,47.54,16.23
ATPTZ,AT,PTZ,Punitz,47.07,16.2
ATPUC,AT,PUC,Puch,46.56,15.46
ATPUF,AT,PUF,Purkersdorf,48.2,16.17
ATPUH,AT,PUH,Purbach,48.45,15.05
ATPUP,AT,PUP,Pupping,48.2,14
ATPUR,AT,PUR,Purgstall,48.75,15.72
ATPUU,AT,PUU,Puchenau,48.19,14.14
ATPWE,AT,PWE,Pichl bei Wels,48.11,13.54
ATPWG,AT,PWG,Perwang,48,13.05
ATPZF,AT,PZF,Patzmannsdorf,48.38,16.16
ATQWE,AT,QWE,Zwölfaxing,48.06,16.28
ATQXZ,AT,QXZ,Wörgl,47.29,12.04
ATR8N,AT,R8N,Rohrbach An Der Golsen,48.03,15.45
ATRAA,AT,RAA,Raasdorf,48.14,16.33
ATRAB,AT,RAB,Raab,48.35,13.64
ATRAD,AT,RAD,Radstadt,47.23,13.27
ATRAM,AT,RAM,Ramingstein,47.04,13.5
ATRAN,AT,RAN,Rannersdorf,48.07,16.28
ATRAS,AT,RAS,Rastenfeld,48.34,15.2
ATRAU,AT,RAU,Rauris,47.13,13
ATRBA,AT,RBA,Raaba,47.01,15.29
ATRBG,AT,RBG,Riegersburg,47,15.56
ATRBM,AT,RBM,Rohrbach bei Mattersburg,47.43,16.25
ATRCA,AT,RCA,Reichenau,47.42,15.5
ATRCH,AT,RCH,Andrichsfurt,48.15,13.31
ATRDF,AT,RDF,Rohrendorf bei Krems,48.25,15.39
ATRDN,AT,RDN,Radenthein,46.48,13.42
ATRDW,AT,RDW,Ratsch an der Weinstrasse,46.41,15.34
ATREE,AT,REE,Reuthe/Vorarlberg,47.22,9.53
ATREG,AT,REG,Regau,48.05,14.08
ATREI,AT,REI,Reichersberg,48.2,13.22
ATREU,AT,REU,Reuthe,47.3,9.43
ATRFD,AT,RFD,Radfeld,47.27,11.55
ATRGF,AT,RGF,Raggendorf,48.24,16.39
ATRHN,AT,RHN,Ranshofen,48.14,13
ATRHR,AT,RHR,Rohrau,48.04,16.51
ATRIE,AT,RIE,Ried,48.35,15.67
ATRIK,AT,RIK,Ried im Innkreis,48.12,13.28
ATRIM,AT,RIM,Rainbach im Mühlkreis,48.33,14.28
ATRIT,AT,RIT,Ried Im Traunkreis,48.01,14.05
ATRIZ,AT,RIZ,Rietz,47.17,11.03
ATRKL,AT,RKL,Rankweil,47.27,9.64
ATRLD,AT,RLD,Riedlingsdorf,47.21,16.08
ATRMU,AT,RMU,Ramsau,48,15.48
ATRN3,AT,RN3,Reisenberg,48,16.31
ATRNA,AT,RNA,Rosenau,46.41,14.11
ATRNZ,AT,RNZ,Rechnitz,47.18,16.27
ATROA,AT,ROA,Rossatz,48.23,15.3
ATROH,AT,ROH,Rohrbach,48.04,14.34
ATROI,AT,ROI,Roitham,48.01,13.49
ATROS,AT,ROS,Rosenbach,46.32,14.02
ATRRA,AT,RRA,Sankt Ruprecht an der Raab,47.09,15.39
ATRRF,AT,RRF,Ruhrsdorf,48.24,15.3
ATRSB,AT,RSB,Reinsberg,47.59,15.04
ATRSD,AT,RSD,Reichersdorf,48.2,15.42
ATRSL,AT,RSL,Rossleithen,47.41,14.17
ATRST,AT,RST,Röschitz,48.4,15.53
ATRSU,AT,RSU,Rosenburg,48.38,15.38
ATRTB,AT,RTB,Rattenberg,47.26,11.54
ATRTE,AT,RTE,Reutte,47.28,10.42
ATRTH,AT,RTH,Rothis,47.17,9.39
ATRTL,AT,RTL,Reichenthal,48.33,14.23
ATRTM,AT,RTM,Rotenturm an der Pinka,47.15,16.14
ATRTT,AT,RTT,Rottenmann,47.52,14.35
ATRTV,AT,RTV,Gallbrunn,48.05,16.64
ATRTZ,AT,RTZ,Retz,48.45,15.57
ATRUD,AT,RUD,Rudersdorf,47.03,16.07
ATRUG,AT,RUG,Altenburg,48.38,15.35
ATRUM,AT,RUM,Rum,47.17,11.27
ATRUN,AT,RUN,Ruden,46.39,14.46
ATRUP,AT,RUP,Ruprechtshofen,48.08,15.16
ATRUS,AT,RUS,Rust,47.48,16.39
ATRUZ,AT,RUZ,Ramsau im Zillertal,47.12,11.53
ATRWL,AT,RWL,Rekawinkel,48.18,16.03
ATRXF,AT,RXF,Raxendorf,48.2,15.16
ATRXG,AT,RXG,Randegg,48.01,14.97
ATRZL,AT,RZL,Riezlern,47.35,10.18
ATRZM,AT,RZM,Rutzenmoos,47.58,13.42
ATS6P,AT,S6P,Sankt Peter-Freienstein,47.23,15.01
ATS7B,AT,S7B,Sankt Margarethen,47.48,16.36
ATS7N,AT,S7N,Schwarzenau,48.44,15.15
ATSA7,AT,SA7,Sachsendorf,48.24,15.5
ATSAA,AT,SAA,Sankt Andra am Zicksee,47.47,16.56
ATSAC,AT,SAC,Sachsenburg,46.49,132.11
ATSAD,AT,SAD,Adnet,47.41,13.08
ATSAG,AT,SAG,Schutzen am Gebirge,47.51,16.37
ATSAK,AT,SAK,Sankt Aegidi,48.29,13.45
ATSAM,AT,SAM,Sarmingstein,48.13,14.58
ATSAN,AT,SAN,Sankt Andrä,46.38,13.53
ATSAO,AT,SAO,Sankt Peter am Ottersbach,46.47,15.45
ATSAP,AT,SAP,Sankt Ulrich Am Pillersee,47.32,12.34
ATSAR,AT,SAR,Stift Ardagger,48.16,14.84
ATSAS,AT,SAS,Stans,47.22,11.43
ATSAT,AT,SAT,Schönau an der Triesting,47.55,16.14
ATSAW,AT,SAW,Sankt Andrä-Wördern,48.2,16.13
ATSBA,AT,SBA,St. Bartholoma,47.04,15.15
ATSBB,AT,SBB,Scheibbs,48,15.1
ATSBC,AT,SBC,Steinabrückl,47.52,16.12
ATSBG,AT,SBG,Strengberg,48.08,14.38
ATSBH,AT,SBH,Schönbach,48.27,15.03
ATSBK,AT,SBK,Spielberg bei Knittelfeld,47.13,14.47
ATSBL,AT,SBL,Sankt Lambrecht,47.04,14.18
ATSCC,AT,SCC,Schalchen,48.12,13.13
ATSCG,AT,SCG,Schrattenberg,48.43,16.43
ATSCH,AT,SCH,Schwertberg,48.27,14.58
ATSCS,AT,SCS,Schlins,47.12,9.42
ATSCW,AT,SCW,Schwarzach,47.44,9.76
ATSCZ,AT,SCZ,Schwaz,47.21,11.43
ATSDB,AT,SDB,Schiedlberg,48.06,14.16
ATSDD,AT,SDD,Stein An Der Donau,48.24,15.35
ATSDG,AT,SDG,Schärding,48.27,13.26
ATSDN,AT,SDN,Sölden,46.58,11
ATSDO,AT,SDO,Wilfersdorf,48.35,16.38
ATSEB,AT,SEB,Seeboden,46.49,13.29
ATSEE,AT,SEE,Seefeld in Tirol,47.19,11.1
ATSEF,AT,SEF,Seefeld-Kadolz,48.43,16.1
ATSEH,AT,SEH,Seeham,47.58,13.05
ATSEI,AT,SEI,Seibersdorf,47.57,16.31
ATSEL,AT,SEL,Sankt Michael im Lungau,47.05,13.38
ATSEN,AT,SEN,Steinabrunn,48.51,16.21
ATSER,AT,SER,Steyr,48.03,14.41
ATSET,AT,SET,Seitenstetten Markt,48.02,14.38
ATSFA,AT,SFA,Schörfling am Attersee,47.56,13.36
ATSFD,AT,SFD,Spielfeld,46.42,15.38
ATSFI,AT,SFI,Sankt Florian am Inn,48.26,13.36
ATSFL,AT,SFL,Sankt Florian,48.1,13.08
ATSFS,AT,SFS,Sankt Stefan im Lavanttal,46.48,14.51
ATSFT,AT,SFT,Senftenberg,48.26,15.33
ATSG4,AT,SG4,Sankt Georgen an der Gusen,48.16,14.27
ATSGA,AT,SGA,Sankt Georgen im Attergau,47.56,13.29
ATSGF,AT,SGF,Sankt Georgen am Steinfelden,48.07,15.35
ATSGG,AT,SGG,Sankt Georgen,47.32,14.22
ATSGL,AT,SGL,Schlägl,48.38,13.58
ATSGN,AT,SGN,Schneegattern,48.02,13.19
ATSGR,AT,SGR,Sieggraben,47.39,16.22
ATSGS,AT,SGS,Sankt Georgen bei Salzburg,47.59,12.53
ATSGT,AT,SGT,Sankt Georgen an der Stiefing,46.52,15.34
ATSGY,AT,SGY,Sankt Georgen am Ybbsfelde,48.08,14.57
ATSGZ,AT,SGZ,Sprögnitz,48.33,15.14
ATSH5,AT,SH5,Hirnsdorf,47.11,15.49
ATSHA,AT,SHA,Seehaus,47.45,13.57
ATSHB,AT,SHB,Schönberg,48.31,15.42
ATSHE,AT,SHE,Schweiggers,48.4,15.04
ATSHF,AT,SHF,Strasshof an der Nordbahn,48.19,16.4
ATSHG,AT,SHG,Schönegg,48.35,14.12
ATSHS,AT,SHS,Schruns,47.05,9.55
ATSHT,AT,SHT,Schwechat,48.08,16.28
ATSIF,AT,SIF,Siegendorf,47.47,16.32
ATSIG,AT,SIG,Schwarzau im Gebirge,47.49,15.42
ATSII,AT,SII,Sierninghofen,48.03,14.2
ATSIN,AT,SIN,Sillian,46.74,12.41
ATSIP,AT,SIP,Schwarzach im Pongau,47.19,13.09
ATSIR,AT,SIR,Seekirchen,47.54,13.08
ATSIS,AT,SIS,Sigless,47.47,16.23
ATSIT,AT,SIT,Sittersdorf,46.32,14.36
ATSJB,AT,SJB,Sankt Jakob Breitenau,47.39,15.43
ATSJD,AT,SJD,Sankt Jakob in Defereggen,46.55,12.19
ATSJK,AT,SJK,Sankt Jakob im Rosental,46.33,14.03
ATSK3,AT,SK3,Sankt Margrethen,46.38,14.23
ATSKB,AT,SKB,Stockenboi,46.43,13.31
ATSKG,AT,SKG,Sankt Gallen,47.41,14.36
ATSKK,AT,SKK,Sankt Kanzian am Klopeiner See,46.37,14.35
ATSKM,AT,SKM,Sankt Michael,47.2,15
ATSKN,AT,SKN,Sinabelkirchen,47.06,15.49
ATSKS,AT,SKS,Kapfenstein,46.53,15.58
ATSLB,AT,SLB,Saalbach,47.23,12.38
ATSLD,AT,SLD,Schladming,47.23,13.41
ATSLL,AT,SLL,Sollenau,47.89,16.24
ATSLV,AT,SLV,Sankt Paul im Lavanttal,46.42,14.51
ATSLZ,AT,SLZ,Silz,47.16,10.56
ATSM4,AT,SM4,Salla,47.06,14.58
ATSMA,AT,SMA,Sankt Marien,48.08,14.16
ATSMI,AT,SMI,Sankt Michael in Obersteiermark,47.2,15
ATSMK,AT,SMK,Schönau im Mühlkreis,48.23,14.44
ATSML,AT,SML,Sankt Michael ob Bleiburg,46.57,14.74
ATSMM,AT,SMM,Sankt Martin im Mühlkreis,48.25,14.02
ATSMN,AT,SMN,Sankt Martin bei Linz,48.13,14.16
ATSMR,AT,SMR,Sankt Margarethen an der Raab,47.03,15.45
ATSMU,AT,SMU,Scheifling,47.09,14.24
ATSND,AT,SND,Stixneusiedl,48.02,16.4
ATSNG,AT,SNG,Söding,46.59,15.17
ATSNI,AT,SNI,Sankt Nikola an der Donau,48.14,14.54
ATSNT,AT,SNT,Sonntag,47.14,9.54
ATSOG,AT,SOG,Sonntagberg,47.58,14.45
ATSOL,AT,SOL,Söll,47.3,12.11
ATSOP,AT,SOP,Sankt Oswald Bei Plankenwarth,47.05,15.16
ATSOS,AT,SOS,Sooss,47.59,16.12
ATSPA,AT,SPA,Sankt Pantaleon,48.12,14.34
ATSPD,AT,SPD,Sankt Peter in der au Dorf,48.03,14.37
ATSPG,AT,SPG,Spannberg,48.27,16.44
ATSPI,AT,SPI,Spittal an der Drau,46.48,13.3
ATSPN,AT,SPN,Spillern,48.23,16.15
ATSPR,AT,SPR,Sankt Peter im Sulmtal,46.45,15.15
ATSPS,AT,SPS,Spital am Semmering,47.36,15.45
ATSPU,AT,SPU,Stadl Paura,48.05,13.52
ATSPY,AT,SPY,Spital am Pyhrn,47.39,14.2
ATSPZ,AT,SPZ,Spitz,48.22,15.25
ATSRB,AT,SRB,Strass im Strassertale,48.28,15.44
ATSRD,AT,SRD,Schönkirchen-Reyersdorf,48.21,16.42
ATSRM,AT,SRM,Schrems,48.47,15.03
ATSSB,AT,SSB,Seiersberg,47,15.24
ATSSI,AT,SSI,Scharnstein,47.54,13.58
ATSSM,AT,SSM,Saalfelden am Steinernen Meer,47.25,12.5
ATSSO,AT,SSO,Sankt Stefan ob Leoben,47.18,14.59
ATSSP,AT,SSP,Pfarrwerfen,47.27,13.12
ATSSR,AT,SSR,Sankt Stefan im Rosental,46.54,15.44
ATSSS,AT,SSS,Steinberg,47.29,16.29
ATSST,AT,SST,Schwanenstadt,48.05,13.77
ATST2,AT,ST2,Sistrans,47.14,11.27
ATST6,AT,ST6,Straden,46.48,15.52
ATST8,AT,ST8,Schutzen,47.31,9.52
ATSTA,AT,STA,Stainach,47.53,14.1
ATSTB,AT,STB,Stegersbach,47.1,16.1
ATSTC,AT,STC,Stockerau,48.23,16.13
ATSTD,AT,STD,Steeg,47.36,13.38
ATSTE,AT,STE,Steinfeld,46.45,13.14
ATSTF,AT,STF,Steindorf,47.57,13.14
ATSTG,AT,STG,Sankt Gertraud,46.52,14.52
ATSTH,AT,STH,Steinach,47.38,13.36
ATSTK,AT,STK,Sankt Josef (Weststeiermark),46.54,15.2
ATSTL,AT,STL,Strobl,47.43,13.29
ATSTM,AT,STM,Stams,47.16,10.58
ATSTN,AT,STN,Seitenstetten,48.01,14.39
ATSTO,AT,STO,Stoob,47.31,16.28
ATSTP,AT,STP,Sankt Pölten,48.12,15.38
ATSTR,AT,STR,Stottera,47.46,16.28
ATSTS,AT,STS,Sankt Stefan,47.24,15.88
ATSTV,AT,STV,Sankt Valentin,47.68,16.01
ATSTZ,AT,STZ,Stainz,46.89,15.26
ATSUB,AT,SUB,Suben,48.24,13.25
ATSUH,AT,SUH,Sankt Ulrich,48.36,16.46
ATSUL,AT,SUL,Sulz,47.17,9.39
ATSUN,AT,SUN,Sattledt,48.04,14.04
ATSUP,AT,SUP,Steinbrunn,47.49,16.24
ATSUS,AT,SUS,Steinhaus,48.07,14.01
ATSVG,AT,SVG,Sankt Veit an der Glan,46.46,14.21
ATSVM,AT,SVM,Sankt Veit im Mühlkreis,48.28,14.09
ATSVO,AT,SVO,Sankt Veit an der Gölsen,48.02,15.4
ATSVT,AT,SVT,Sankt Paul,46.73,13.63
ATSVV,AT,SVV,Sankt Veit am Vogau,46.44,15.37
ATSWA,AT,SWA,Seewalchen am Attersee,47.57,13.35
ATSWB,AT,SWB,Schwanberg,46.45,15.12
ATSWG,AT,SWG,Schwerting,48.01,12.57
ATSWH,AT,SWH,Gross-Schweinbarth,48.24,16.37
ATSWN,AT,SWN,Strasswalchen,47.59,13.15
ATSWO,AT,SWO,Schwoich,47.33,12.08
ATSWT,AT,SWT,Schwendt,47.31,12.19
ATSXA,AT,SXA,Bernhardsthal,48.41,16.52
ATSYG,AT,SYG,Steyregg,48.17,14.22
ATSYM,AT,SYM,Steyrermühl,47.59,13.48
ATSZ5,AT,SZ5,Stuhlfelden,47.17,12.31
ATSZA,AT,SZA,Selzthal,47.33,14.19
ATSZG,AT,SZG,Salzburg,47.48,13.02
ATSZI,AT,SZI,Stratzing,48.27,15.36
ATTAM,AT,TAM,Tamsweg,47.08,13.48
ATTAT,AT,TAT,Tattendorf,47.57,16.18
ATTBE,AT,TBE,Trieben,47.29,14.28
ATTBH,AT,TBH,Treibach,46.86,14.46
ATTBL,AT,TBL,Sankt Thomas am Blasenstein,48.18,14.45
ATTBW,AT,TBW,Thalheim bei Wels,48.09,14.02
ATTDF,AT,TDF,Tresdorf,48.23,16.21
ATTDW,AT,TDW,Trausdorf an der Wulka,47.49,16.34
ATTEC,AT,TEC,Tenneck,47.49,13.17
ATTEF,AT,TEF,Teesdorf,47.57,16.17
ATTEL,AT,TEL,Telfs,47.3,11.07
ATTEN,AT,TEN,Hausmannstatten,46.59,15.3
ATTEU,AT,TEU,Teufenbach,46.54,15.13
ATTEX,AT,TEX,Texing,48.02,15.19
ATTFN,AT,TFN,Treffen,46.66,13.85
ATTFS,AT,TFS,Terfens,47.19,11.39
ATTGU,AT,TGU,Thalgau,47.5,13.15
ATTHF,AT,THF,Theresienfeld,47.51,16.14
ATTHG,AT,THG,Thening,48.15,14.1
ATTHM,AT,THM,Thalheim,47.11,14.35
ATTHN,AT,THN,Thüringen,47.12,9.46
ATTHR,AT,THR,Thaur,47.18,11.28
ATTHS,AT,THS,Theiss,48.23,15.41
ATTHY,AT,THY,Thaya,48.51,15.17
ATTIR,AT,TIR,Tirol,47.42,15.33
ATTIS,AT,TIS,Traisen,48.02,15.36
ATTK2,AT,TK2,Treffelsdorf,46.42,14.24
ATTKI,AT,TKI,Taiskirchen im Innskreis,48.16,13.34
ATTKP,AT,TKP,Taufkirchen an der Pram,48.25,13.32
ATTLH,AT,TLH,Tumeltsham,48.14,13.3
ATTLL,AT,TLL,Tillmitsch,46.48,15.28
ATTLN,AT,TLN,Tulln,48.2,16.03
ATTMA,AT,TMA,Timelkam,48,13.36
ATTMH,AT,TMH,Ostermiething,48.03,12.5
ATTMR,AT,TMR,Traismauer,48.2,15.44
ATTNG,AT,TNG,Ternberg,47.56,14.22
ATTNQ,AT,TNQ,Traun,48.13,14.14
ATTNU,AT,TNU,Antau,47.46,16.29
ATTNZ,AT,TNZ,Ternitz,47.7,16.01
ATTOL,AT,TOL,Thörl,47.51,15.21
ATTPV,AT,TPV,Treibach Althofen,46.52,14.28
ATTR7,AT,TR7,Neustift im Stubaital,47.07,11.19
ATTRA,AT,TRA,Tragwein,48.2,14.37
ATTRH,AT,TRH,Traboch,47.22,14.59
ATTRU,AT,TRU,Trumau,48,16.2
ATTRW,AT,TRW,Tribuswinkel,48,16.27
ATTSK,AT,TSK,Traiskirchen,48.01,16.29
ATTTL,AT,TTL,Schrattenthal,48.42,15.54
ATTUE,AT,TUE,Türnitz,47.55,15.29
ATTUL,AT,TUL,Tulbing,48.17,16.07
ATTWG,AT,TWG,Twimberg,46.54,14.5
ATTWR,AT,TWR,Weer,47.18,11.38
ATTYN,AT,TYN,Theyern,48.21,15.4
ATUBA,AT,UBA,Ubelbach,47.12,15.13
ATUBE,AT,UBE,Unterbergen,46.31,14.17
ATUBG,AT,UBG,Unternberg,47.07,13.44
ATUBL,AT,UBL,Giesshübl,48.06,16.14
ATUDE,AT,UDE,Uderns,47.19,11.52
ATUER,AT,UER,Auersthal,48.22,16.38
ATUFN,AT,UFN,Unterfladnitz,47.11,15.4
ATUGN,AT,UGN,Ungenach,48.03,13.37
ATULB,AT,ULB,Unterloiben,48.23,15.32
ATULF,AT,ULF,Ulmerfeld,48.07,14.82
ATUNA,AT,UNA,Unterach,47.48,13.28
ATUNG,AT,UNG,Ungerdorf,47.05,15.4
ATUNN,AT,UNN,Untersiebenbrunn,48.15,16.43
ATUNZ,AT,UNZ,Unzmarkt,47.11,14.26
ATUPS,AT,UPS,Unterpremstätten,46.57,15.24
ATURB,AT,URB,Unterradlberg,48.15,15.41
ATURF,AT,URF,Urfahr,48.19,14.16
ATURS,AT,URS,Bürs,47.08,9.48
ATUTB,AT,UTB,Unterretzbach,48.46,16
ATUTD,AT,UTD,Uttendorf,47.28,12.57
ATUTK,AT,UTK,Untermarkersdorf,48.42,16.06
ATUTZ,AT,UTZ,Utzenaich,48.17,13.28
ATUWF,AT,UWF,Unterweitersdorf,48.22,14.28
ATVAS,AT,VAS,Vasoldsberg,47,15.33
ATVCO,AT,VCO,Vorchdorf,48,13.55
ATVDD,AT,VDD,Vienna Danubepier Hov,,
ATVDS,AT,VDS,Vosendorf Sud,48.06,16.19
ATVEH,AT,VEH,Viehdorf,48.09,14.53
ATVEL,AT,VEL,Velden,46.37,14.03
ATVIC,AT,VIC,Vichtenstein,48.32,13.4
ATVIE,AT,VIE,Wien,48.12,16.22
ATVLH,AT,VLH,Villach,46.61,13.85
ATVLM,AT,VLM,Velm,48.28,16.46
ATVMP,AT,VMP,Vomp,47.2,11.4
ATVNG,AT,VNG,Meiningen,47.17,9.34
ATVOC,AT,VOC,Vöcklabruck,48,13.39
ATVOE,AT,VOE,Völs,47.25,11.32
ATVOF,AT,VOF,Vösendorf,48.07,16.19
ATVOK,AT,VOK,Vöcklamarkt,48,13.29
ATVOR,AT,VOR,Bezau,47.23,9.54
ATVOT,AT,VOT,Völkermarkt,46.39,14.37
ATVTB,AT,VTB,Voitsberg,47.05,15.14
ATVTD,AT,VTD,Obertrum am See,47.56,13.04
ATVTH,AT,VTH,Veitsch,47.34,15.29
ATVTS,AT,VTS,Vitis,48.45,15.1
ATW8B,AT,W8B,Welgersdorf,47.14,16.21
ATWAF,AT,WAF,Waidhofen an der Ybbs,47.57,14.46
ATWAI,AT,WAI,Waidhofen an der Thaya,48.48,15.16
ATWAK,AT,WAK,Waldkirchen am Wesen,48.26,13.49
ATWAL,AT,WAL,Wals,47.47,12.58
ATWAN,AT,WAN,Wannersdorf,47.17,15.19
ATWAR,AT,WAR,Warth,47.25,10.18
ATWAS,AT,WAS,Weikersdorf am Steinfelde,47.48,16.08
ATWB2,AT,WB2,Windhaag Bei Freistadt,48.35,14.33
ATWBA,AT,WBA,Weissenbach,46.39,13.47
ATWBF,AT,WBF,Waldburg bei Freistadt,48.3,14.26
ATWBG,AT,WBG,Wieselburg,48.12,15.14
ATWBH,AT,WBH,Weilbach,48.17,13.23
ATWBU,AT,WBU,Wilhelmsburg,48.06,15.36
ATWCE,AT,WCE,Walchsee,47.65,12.32
ATWCH,AT,WCH,Waldbach,47.27,15.49
ATWDB,AT,WDB,Wildendürnbach,48.45,16.3
ATWDD,AT,WDD,Weissenstein ob der Drau,,
ATWDF,AT,WDF,Weitendorf,46.53,15.28
ATWDG,AT,WDG,Waldegg,47.52,16.02
ATWDO,AT,WDO,Wildon,46.53,15.31
ATWDR,AT,WDR,Walpersdorf,48.19,15.4
ATWDU,AT,WDU,Wundschuh,46.55,15.27
ATWE3,AT,WE3,Wiedendorf,48.3,15.46
ATWEA,AT,WEA,Weitra,48.42,14.53
ATWEB,AT,WEB,Webersdorf,47.57,13.01
ATWEE,AT,WEE,Weissenbach an der Triesting,47.58,16.01
ATWEG,AT,WEG,Weigelsdorf,47.57,16.24
ATWEI,AT,WEI,Weissenbach,47.34,14.13
ATWEN,AT,WEN,Wernberg,46.37,13.56
ATWER,AT,WER,Werndorf,46.55,15.29
ATWES,AT,WES,Weins,48.12,15.01
ATWET,AT,WET,Weiten,48.17,15.15
ATWEU,AT,WEU,Weinburg,48.06,15.31
ATWEZ,AT,WEZ,Weiz,47.13,15.36
ATWFG,AT,WFG,Wolfsegg am Hausruck,48.06,13.4
ATWFN,AT,WFN,Werfen,47.28,13.11
ATWFT,AT,WFT,Wolfurt,47.28,9.45
ATWGI,AT,WGI,Weng im Innkreis,48.14,13.11
ATWGR,AT,WGR,Weigersdorf,47.56,14.07
ATWHE,AT,WHE,Wilhering,48.19,14.12
ATWID,AT,WID,Wildschonau,47.27,12.03
ATWIE,AT,WIE,Wielandsthal,48.18,15.41
ATWIF,AT,WIF,Willendorf,47.47,16.03
ATWIH,AT,WIH,Wildshut,47.59,12.53
ATWIL,AT,WIL,Wildungsmauer,48.06,16.48
ATWIN,AT,WIN,Walkenstein,48.43,15.44
ATWIS,AT,WIS,Wolfsberg im Schwarzautal,48.85,156.59
ATWKD,AT,WKD,Weissenkirchen in der Wachau,48.23,15.28
ATWKH,AT,WKH,Waldneukirchen,47.59,14.15
ATWKI,AT,WKI,Weisskirchen,47.09,14.44
ATWLG,AT,WLG,Wendling,48.14,13.4
ATWLL,AT,WLL,Wöllersdorf-Steinabrückl,47.51,16.1
ATWLN,AT,WLN,Wolfern,48.04,14.22
ATWLP,AT,WLP,Wildalpen,47.39,14.59
ATWLR,AT,WLR,Weiler,47.17,9.39
ATWLZ,AT,WLZ,Wulzeshofen,48.71,16.3
ATWMP,AT,WMP,Wimpassing,47.69,16.02
ATWNF,AT,WNF,Wiener Neudorf,48.08,16.31
ATWNG,AT,WNG,Wang,48.02,15.01
ATWNK,AT,WNK,Weissenkirchen im Attergau,47.56,13.23
ATWNO,AT,WNO,Wernersdorf,46.43,15.12
ATWNR,AT,WNR,Wiener Neustadt,47.8,16.23
ATWO4,AT,WO4,Waldzell,48.08,13.26
ATWOF,AT,WOF,Wolfsberg (Kärnten),46.51,14.5
ATWOL,AT,WOL,Wolfpassing,48.04,15.03
ATWON,AT,WON,Wagna,46.45,15.33
ATWOS,AT,WOS,Wösendorf,48.22,15.27
ATWPD,AT,WPD,Wampersdorf,47.55,16.25
ATWPH,AT,WPH,Wippenham,48.13,13.23
ATWRT,AT,WRT,Wartberg,47.31,15.3
ATWS6,AT,WS6,Wies,46.43,15.16
ATWSD,AT,WSD,Wöllersdorf,48.05,15.53
ATWSE,AT,WSE,Wallsee,48.1,14.43
ATWSG,AT,WSG,Wiesing,47.24,11.48
ATWSH,AT,WSH,Wimpassing im Schwarzatale,47.45,16
ATWSK,AT,WSK,Weisskirchen an der Traun,48.1,14.07
ATWSL,AT,WSL,Wels,48.15,14.02
ATWSS,AT,WSS,Weissenstein,46.68,13.72
ATWST,AT,WST,Weistrach,48.03,14.35
ATWTB,AT,WTB,Worterberg,47.13,16.06
ATWTD,AT,WTD,Westendorf,47.26,12.13
ATWTG,AT,WTG,Weitenegg,48.13,15.17
ATWTH,AT,WTH,Wallern an der Trattnach,48.14,13.57
ATWTN,AT,WTN,Wattens,47.29,11.59
ATWUF,AT,WUF,Wesenufer,48.27,13.48
ATWUL,AT,WUL,Wulkaprodersdorf,47.48,16.3
ATWUP,AT,WUP,Wurzenpass,46.31,13.45
ATWUR,AT,WUR,Würflach,47.46,16.03
ATWWT,AT,WWT,Wolkersdorf,48.23,16.31
ATWYR,AT,WYR,Weyer,47.51,14.39
ATWZK,AT,WZK,Waizenkirchen,48.2,13.52
ATXAE,AT,XAE,Oehling,48.06,14.48
ATXXX,AT,XXX,RIS Inland waterways,,
ATYBB,AT,YBB,Ybbs an der Donau,48.1,15.05
ATYBS,AT,YBS,Ybbsitz,47.56,14.53
ATZAB,AT,ZAB,Wimpassing an der Laitha,47.55,16.25
ATZAC,AT,ZAC,Böheimkirchen,48.12,15.46
ATZAD,AT,ZAD,Ampflwang im Hausruckwald,48.06,13.34
ATZAE,AT,ZAE,Breitenau am Hochlantsch,47.24,15.28
ATZAM,AT,ZAM,Zams,47.09,10.35
ATZAS,AT,ZAS,Zell am See,47.19,12.47
ATZDD,AT,ZDD,Zwentendorf an der Donau,48.2,15.54
ATZEN,AT,ZEN,Maria Lanzendorf,48.06,16.25
ATZER,AT,ZER,Zeiselmauer,48.2,16.1
ATZEZ,AT,ZEZ,Zell am Ziller,47.13,11.53
ATZIE,AT,ZIE,Ziersdorf,48.31,15.55
ATZIN,AT,ZIN,Inzersdorf an der Traisen,48.19,15.4
ATZIP,AT,ZIP,Zipf,48.02,13.3
ATZIR,AT,ZIR,Zirl,47.17,11.13
ATZIS,AT,ZIS,Zistersdorf,48.32,16.45
ATZLF,AT,ZLF,Jetzelsdorf,48.42,16.03
ATZMD,AT,ZMD,Zemendorf-Stöttera,47.45,16.27
ATZMO,AT,ZMO,Zell am Moos,47.54,13.19
ATZNG,AT,ZNG,Zobing,48.29,15.41
ATZNH,AT,ZNH,Siezenheim,47.48,12.59
ATZPE,AT,ZPE,Zell am Pettenfirst,48.03,13.34
ATZRF,AT,ZRF,Ketzelsdorf,48.39,16.39
ATZRS,AT,ZRS,Zürs,47.1,10.1
ATZTG,AT,ZTG,Zettling,46.57,15.25
ATZTW,AT,ZTW,Zeltweg,47.19,14.75
ATZUR,AT,ZUR,Zurndorf,47.58,17
ATZWD,AT,ZWD,Zwentendorf,48.36,16.26
ATZWT,AT,ZWT,Zwettl,48.36,15.1
ATZZG,AT,ZZG,Michaelbeuern,48.01,13.01
AU2CO,AU,2CO,Tyabb,-38.15,145.11
AU2IC,AU,2IC,Tarneit,-37.52,144.4
AU2SN,AU,2SN,Yarrawarrah,-34.03,151.02
AU2TO,AU,2TO,Wollert,-37.35,145.02
AU2UA,AU,2UA,Woolooware,-34.03,151.08
AU2VC,AU,2VC,Springvale South,-37.58,145.09
AU2WS,AU,2WS,Brooklyn,-33.33,151.14
AU32S,AU,32S,Seaford,-35.11,138.28
AU3CI,AU,3CI,Rythdale,-38.08,145.26
AU3CO,AU,3CO,Upwey,-37.54,145.2
AU3WS,AU,3WS,Yowie Bay,-34.03,151.06
AU4VC,AU,4VC,Strathewen,-37.33,145.16
AU5CI,AU,5CI,Selby,-37.55,145.23
AU5CO,AU,5CO,Wantirna,-37.51,145.13
AU5RC,AU,5RC,Werribee South,-37.56,144.43
AU5TO,AU,5TO,Yan Yean,-37.34,145.06
AU5WA,AU,5WA,Pilbara,-21.15,118.18
AU6CO,AU,6CO,Warrandyte,-37.45,145.14
AU6DF,AU,6DF,West Hoxton,-33.55,150.51
AU6VC,AU,6VC,Sunshine,-37.47,144.5
AU7BM,AU,7BM,Bomen,-35.04,147.2
AU7IC,AU,7IC,The Basin,-37.51,145.19
AU7WW,AU,7WW,Waverton,-33.51,151.12
AU8SS,AU,8SS,Woronora,-34.01,151.02
AU8VC,AU,8VC,Sydenham,-37.42,144.46
AUA5T,AU,A5T,Belgrave South,-37.56,145.2
AUA6L,AU,A6L,Balcombe,-38.15,145.01
AUA7A,AU,A7A,Aura,-37.56,145.25
AUAAB,AU,AAB,Arrabury,,
AUAAG,AU,AAG,Morgan,-34.01,139.4
AUABA,AU,ABA,Abbotsford,-37.48,145
AUABC,AU,ABC,Beulah,-35.56,142.25
AUABD,AU,ABD,Aberdeen,-32.1,150.54
AUABG,AU,ABG,Abingdon,,
AUABH,AU,ABH,Alpha,-23.64,146.63
AUABL,AU,ABL,Amberley,-27.63,152.69
AUABM,AU,ABM,Bamaga,-10.88,142.39
AUABN,AU,ABN,Auburn,-34.01,138.41
AUABO,AU,ABO,Alberton,-27.42,153.15
AUABP,AU,ABP,Abbot Point,-19.54,148.05
AUABX,AU,ABX,Albury,-36.05,146.55
AUACA,AU,ACA,Acacia Ridge,-27.35,153.01
AUACD,AU,ACD,Arcadia,-33.37,151.02
AUACK,AU,ACK,Albany Creek,-27.21,152.59
AUACO,AU,ACO,Ascot,-31.56,115.55
AUADA,AU,ADA,Adelaide Apt,,
AUADG,AU,ADG,Aldinga,-35.17,138.29
AUADL,AU,ADL,Adelaide,-34.55,138.35
AUADO,AU,ADO,Andamooka,-30.45,137.16
AUAFD,AU,AFD,Allansford,-38.24,142.35
AUAFL,AU,AFL,Archerfield,-27.34,153.01
AUAGA,AU,AGA,Malaga,-31.51,115.54
AUAGS,AU,AGS,Augusta,-34.19,115.1
AUAGW,AU,AGW,Agnew,,
AUAGY,AU,AGY,Argyle Downs,-16.5,128.91
AUAHK,AU,AHK,Ardross,-32.01,115.5
AUAHS,AU,AHS,Arana Hills,-27.23,152.57
AUAIR,AU,AIR,Airlie Terminal,-21.2,115.1
AUAKP,AU,AKP,Kidman Park,-34.54,138.31
AUALA,AU,ALA,Auldana,-34.91,138.68
AUALB,AU,ALB,Allambie Heights,-33.45,151.15
AUALD,AU,ALD,Aldgate,-35.01,138.44
AUALH,AU,ALH,Albany,-35.02,117.88
AUALI,AU,ALI,Australind,-33.17,115.43
AUALN,AU,ALN,Alpine,-34.24,150.3
AUALO,AU,ALO,Adelong,-35.19,148.04
AUALP,AU,ALP,Abell Point,-20.16,148.43
AUALT,AU,ALT,Altona,-37.52,144.5
AUALV,AU,ALV,Alvie,-38.14,143.3
AUALX,AU,ALX,Alexandria,-33.54,151.13
AUALY,AU,ALY,Unley,-34.57,138.36
AUAMD,AU,AMD,Armadale,-37.51,145.01
AUAMK,AU,AMK,Bunyip,-38.06,145.43
AUAMN,AU,AMN,Arumbera,-23.45,133.51
AUAMR,AU,AMR,Amrun,-12.55,141.37
AUAMT,AU,AMT,Amata,-26.15,131.14
AUAMX,AU,AMX,Ammaroo,-21.75,135.23
AUANA,AU,ANA,Lutana,-42.5,147.18
AUANB,AU,ANB,Agnes Bank,-33.36,150.42
AUAND,AU,AND,Andrews,-33.36,138.38
AUANG,AU,ANG,Angaston,-34.3,139.02
AUANL,AU,ANL,Annerley,-27.29,153.01
AUANN,AU,ANN,Annandale,-33.53,151.1
AUANZ,AU,ANZ,Angus Downs,-25.03,132.27
AUAOK,AU,AOK,Eatons Hill,-27.2,152.56
AUAPK,AU,APK,Albion Park,-34.34,150.47
AUAPP,AU,APP,Applecross,-32.01,115.5
AUAPR,AU,APR,Athol Park,-34.51,138.32
AUAPT,AU,APT,Alphington,-37.46,145.01
AUAPW,AU,APW,Airport West,-37.44,144.53
AUAPY,AU,APY,Aspley,-27.22,153.01
AUARA,AU,ARA,Kogarah,-33.59,151.07
AUARC,AU,ARC,Arncliffe,-33.56,151.08
AUARD,AU,ARD,Ardrossan,-34.42,137.91
AUARL,AU,ARL,Arundel,-27.93,153.36
AUARM,AU,ARM,Armidale,-30.51,151.66
AUART,AU,ART,Artarmon,-33.49,151.11
AUARY,AU,ARY,Ararat,-37.26,142.98
AUASC,AU,ASC,Ashgrove/Brisbane,-27.26,152.58
AUASE,AU,ASE,Anglesea,-38.25,144.1
AUASF,AU,ASF,Ashfield,-31.55,115.56
AUASH,AU,ASH,Ashton,-34.56,138.44
AUASK,AU,ASK,Kewarra Beach,-16.47,145.4
AUASP,AU,ASP,Alice Springs,-23.69,133.88
AUASQ,AU,ASQ,Asquith,-33.41,151.06
AUATA,AU,ATA,Ardlethan,-34.21,146.54
AUATH,AU,ATH,Athelstone,-34.52,138.42
AUATK,AU,ATK,Langwarrin,-38.1,145.1
AUATL,AU,ATL,Chester Hill,-33.52,151
AUATN,AU,ATN,Atherton,-17.16,145.28
AUATO,AU,ATO,Altona North,-37.49,144.5
AUATT,AU,ATT,Attadale,-32.01,115.47
AUAUA,AU,AUA,Armadale,-32.09,116
AUAUB,AU,AUB,Auburn,-33.51,151.02
AUAUC,AU,AUC,Bunbartha,-36.13,145.19
AUAUD,AU,AUD,Augustus Downs,,
AUAUK,AU,AUK,Lebrina,-41.1,147.13
AUAUU,AU,AUU,Aurukun Mission,,
AUAVA,AU,AVA,Alexandra,-37.11,145.42
AUAVE,AU,AVE,Angle Vale,-34.38,138.39
AUAVG,AU,AVG,Auvergne,-15.68,130
AUAVI,AU,AVI,Alstonville,-28.5,153.26
AUAVV,AU,AVV,Avalon,-38.04,144.44
AUAWD,AU,AWD,Ashwood,-37.52,145.6
AUAWK,AU,AWK,Marburg,-27.34,152.35
AUAWN,AU,AWN,Alton Downs,-23.29,150.37
AUAWP,AU,AWP,Austral Downs,,
AUAXC,AU,AXC,Aramac,-22.97,145.24
AUAXL,AU,AXL,Alexandria,-33.9,151.19
AUAYB,AU,AYB,Boya,-31.56,116.03
AUAYD,AU,AYD,Alroy Downs,-19.29,136.07
AUAYG,AU,AYG,Alyangula,-13.51,136.25
AUAYL,AU,AYL,Anthony Lagoon,-17.97,135.53
AUAYQ,AU,AYQ,Ayers Rock,,
AUAYR,AU,AYR,Ayr,-19.57,147.4
AUB2P,AU,B2P,Bossley Park,-33.51,150.53
AUB3B,AU,B3B,Bonbeach,-38.03,145.07
AUBA2,AU,BA2,Neutral Bay,-33.5,151.13
AUBAA,AU,BAA,Balhannah,-34.59,138.5
AUBAE,AU,BAE,Baerami,-32.24,150.29
AUBAH,AU,BAH,Ballast Head,-35.75,137.77
AUBAK,AU,BAK,Bakers Creek,-21.2,149.14
AUBAL,AU,BAL,Balnarring,-38.22,145.08
AUBAN,AU,BAN,Bandiana,-36.09,146.56
AUBAR,AU,BAR,Barry Beach,-38.42,146.23
AUBAS,AU,BAS,Bassendean,-31.54,115.56
AUBAY,AU,BAY,Byron Bay,-28.39,153.37
AUBBC,AU,BBC,Bondi Beach,-33.53,151.16
AUBBE,AU,BBE,Big Bell,,
AUBBG,AU,BBG,Bing Bong,-15.36,136.21
AUBBL,AU,BBL,Beelbangera,-34.16,146.06
AUBBR,AU,BBR,Binna Burra,-28.42,153.3
AUBBT,AU,BBT,Blackbutt,-26.53,152.06
AUBBU,AU,BBU,Bibbenluke,-36.49,149.17
AUBBW,AU,BBW,Burwood,-33.53,151.06
AUBBY,AU,BBY,Bremer Bay,-34.23,119.22
AUBCB,AU,BCB,Bencubbin,-30.49,117.51
AUBCE,AU,BCE,Badger Creek,-37.42,145.31
AUBCH,AU,BCH,Beachport,-37.48,140.01
AUBCI,AU,BCI,Barcaldine,-23.55,145.28
AUBCK,AU,BCK,Bolwarra,-32.71,151.56
AUBCO,AU,BCO,Blacktown,-33.46,150.54
AUBCR,AU,BCR,Bracken Ridge,-27.19,153.02
AUBCZ,AU,BCZ,Bickerton Island,,
AUBDA,AU,BDA,Bulahdelah,-32.25,152.12
AUBDB,AU,BDB,Bundaberg,-24.86,152.35
AUBDD,AU,BDD,Badu Island,,
AUBDE,AU,BDE,Brendale,-27.19,152.58
AUBDF,AU,BDF,Bedford Park,-35.02,138.34
AUBDG,AU,BDG,Bendigo,-36.75,144.28
AUBDM,AU,BDM,Bundamba,-27.37,152.48
AUBDN,AU,BDN,Bayindeen,-37.19,143.1
AUBDS,AU,BDS,Beaudesert,-27.98,152.99
AUBDW,AU,BDW,Bedford Downs,,
AUBDY,AU,BDY,Bomaderry,-34.51,150.37
AUBE9,AU,BE9,Belrose,-33.44,151.13
AUBEA,AU,BEA,Beaconsfield,-41.12,146.49
AUBEC,AU,BEC,Beckenham,-31.02,115.57
AUBEE,AU,BEE,Beagle Bay,-16.98,122.66
AUBEG,AU,BEG,Balgowlah Heights,-33.48,151.15
AUBEL,AU,BEL,Bell Bay,-41.13,146.86
AUBEM,AU,BEM,Belmore,-33.55,151.06
AUBEN,AU,BEN,Bentliegh Vic,-37.55,145.02
AUBEO,AU,BEO,Belmont,-27.51,153.12
AUBER,AU,BER,Berri,-34.17,140.36
AUBET,AU,BET,Belmont,-31.56,115.55
AUBEU,AU,BEU,Bedourie,-24.35,139.47
AUBEV,AU,BEV,Bonnie Vale,-30.5,121.11
AUBEW,AU,BEW,Beerwah,-26.85,152.96
AUBEX,AU,BEX,Bellevue,-31.54,116.01
AUBEY,AU,BEY,Bentley,-28.46,153.07
AUBFC,AU,BFC,Bloomfield,-15.93,145.34
AUBFD,AU,BFD,Beresfield,-32.48,151.39
AUBFR,AU,BFR,Broadford,-37.12,145.04
AUBGA,AU,BGA,Bungwahl,-32.23,152.26
AUBGB,AU,BGB,Burringbar,-28.26,153.29
AUBGE,AU,BGE,Blairgowrie,-38.21,144.46
AUBGG,AU,BGG,Biggera Waters,-27.55,153.23
AUBGN,AU,BGN,Bennetts Green,-32.99,151.69
AUBGO,AU,BGO,Booragoon,-32.02,115.5
AUBGR,AU,BGR,Bridgewater,-42.73,147.23
AUBGT,AU,BGT,Bridgetown,-33.58,116.08
AUBGW,AU,BGW,Bangalow,-28.41,153.31
AUBGY,AU,BGY,Blighty,-35.35,145.21
AUBHH,AU,BHH,Beechworth,-36.22,146.43
AUBHQ,AU,BHQ,Broken Hill,-31.96,141.45
AUBHS,AU,BHS,Bathurst,-33.41,149.58
AUBHT,AU,BHT,Brighton Downs,,
AUBIB,AU,BIB,Berrinba,-27.39,153.05
AUBIC,AU,BIC,Bicheno,-41.52,148.17
AUBIG,AU,BIG,Bilinga,-28.1,153.31
AUBIL,AU,BIL,Billinudgel,-28.3,153.32
AUBIN,AU,BIN,Binningup,-33.09,115.41
AUBIP,AU,BIP,Bulimba,-27.44,153.06
AUBIR,AU,BIR,Birkenhead,-34.5,138.3
AUBIW,AU,BIW,Billiluna,-19.55,127.66
AUBIY,AU,BIY,Bringelly,-33.56,150.44
AUBJT,AU,BJT,Bondi Junction,-33.53,151.14
AUBJU,AU,BJU,Burren Junction,-30.06,148.58
AUBKD,AU,BKD,Birkdale,-27.29,153.13
AUBKE,AU,BKE,Berkeley Vale,-33.21,151.26
AUBKH,AU,BKH,Baulkham Hills,-33.45,151
AUBKL,AU,BKL,Brooklyn,-37.49,144.5
AUBKO,AU,BKO,Beckom,-34.2,146.58
AUBKP,AU,BKP,Barkly Downs,,
AUBKQ,AU,BKQ,Blackall,-24.42,145.46
AUBKR,AU,BKR,Mountbarker,-34.38,117.4
AUBKT,AU,BKT,Brookton,-32.23,117
AUBLA,AU,BLA,Bibra Lake,-32.04,115.49
AUBLB,AU,BLB,Bonnells Bay,-33.05,151.31
AUBLD,AU,BLD,Boulder,-30.47,121.29
AUBLE,AU,BLE,Bohle,-19.12,146.43
AUBLG,AU,BLG,Beenleigh,-27.43,153.12
AUBLH,AU,BLH,Burleigh Heads,-28.06,153.27
AUBLI,AU,BLI,Blenheim,-27.4,152.19
AUBLK,AU,BLK,Balaklava,-34.09,138.25
AUBLL,AU,BLL,Bullsbrook,-31.4,116
AUBLM,AU,BLM,Balmain,-33.52,151.11
AUBLN,AU,BLN,Benalla,-36.54,145.98
AUBLO,AU,BLO,Biloela,-24.39,150.51
AUBLP,AU,BLP,Black Point,-11.09,132.09
AUBLS,AU,BLS,Bollon,-28.03,147.47
AUBLT,AU,BLT,Blackwater,-23.58,148.88
AUBLV,AU,BLV,Bella Vista,-33.44,150.57
AUBLW,AU,BLW,Bungalow,-16.55,145.46
AUBLY,AU,BLY,Burnley,-37.49,145
AUBM5,AU,BM5,Bendemeer,-30.53,151.1
AUBMA,AU,BMA,Bombala,-36.55,149.14
AUBMD,AU,BMD,Broadmeadows,-29.51,152.18
AUBME,AU,BME,Broome,-17.95,122.22
AUBMK,AU,BMK,Bemboka,-36.38,149.34
AUBMO,AU,BMO,Banksmeadow,-33.57,151.13
AUBMP,AU,BMP,Brampton,,
AUBMR,AU,BMR,Braemar,-34.26,150.29
AUBMS,AU,BMS,Bacchus Marsh,-37.4,144.26
AUBMU,AU,BMU,Bendick Murrell,-34.1,148.27
AUBMW,AU,BMW,Broadmeadows,-37.68,144.93
AUBND,AU,BND,Bundall,-28.01,153.4
AUBNE,AU,BNE,Brisbane,-27.28,153.01
AUBNG,AU,BNG,Binalong,-34.4,148.38
AUBNK,AU,BNK,Ballina,-28.86,153.56
AUBNM,AU,BNM,Binnum,-36.48,140.56
AUBNN,AU,BNN,Bannockburn,-38.03,144.1
AUBNT,AU,BNT,Bicton,-32.01,115.46
AUBNW,AU,BNW,Barnawartha,-36.06,146.4
AUBNX,AU,BNX,Bulleen,-37.46,145.05
AUBNY,AU,BNY,Blayney,-33.32,149.15
AUBOA,AU,BOA,Dayboro,-27.11,152.5
AUBOB,AU,BOB,Bobin,-31.43,152.17
AUBOD,AU,BOD,Boondall,-27.2,153.03
AUBOH,AU,BOH,Beacon Hill,-33.45,151.15
AUBOI,AU,BOI,Boyne Island,-23.56,151.21
AUBOL,AU,BOL,Bridgewater-on-Loddon,-36.36,143.57
AUBOO,AU,BOO,Booby Island,-10.36,141.55
AUBOT,AU,BOT,Boort,-36.07,143.43
AUBOU,AU,BOU,Boundary Bend,-34.42,143.09
AUBOV,AU,BOV,Blacktip Terminal,-14.24,129.21
AUBOW,AU,BOW,Broadwood,-30.47,121.27
AUBOX,AU,BOX,Borroloola,-16.05,136.3
AUBOY,AU,BOY,Boyer,-42.5,147.18
AUBPG,AU,BPG,Burpengary,-27.1,152.57
AUBPK,AU,BPK,Brooklyn Park,-34.55,138.32
AUBPO,AU,BPO,Bridport,-41,147.24
AUBPR,AU,BPR,Beaconsfield Upper,-38,145.25
AUBPT,AU,BPT,Barney Point,-23.5,151.16
AUBQ9,AU,BQ9,Belmont,-27.3,153.07
AUBQA,AU,BQA,Ballarat,-37.56,143.86
AUBQL,AU,BQL,Boulia,-22.91,139.91
AUBQW,AU,BQW,Balgo Hills,,
AUBQY,AU,BQY,Bonnet Bay,-34,151.03
AUBR2,AU,BR2,Burra,-33.4,138.56
AUBR7,AU,BR7,Basket Range,-34.56,138.46
AUBRA,AU,BRA,Brisbane Apt,,
AUBRB,AU,BRB,Braybrook,-37.47,144.51
AUBRD,AU,BRD,Berridale,-36.22,148.49
AUBRE,AU,BRE,Barmera,-34.15,140.28
AUBRG,AU,BRG,Berrigan,-35.4,145.49
AUBRH,AU,BRH,Barwon Heads,-38.17,144.3
AUBRI,AU,BRI,Brigalow,-31.1,148.47
AUBRJ,AU,BRJ,Bright,-36.72,146.95
AUBRK,AU,BRK,Bourke,-30.09,145.94
AUBRL,AU,BRL,Barellan,-34.18,146.34
AUBRM,AU,BRM,Berrimah,-12.25,130.55
AUBRN,AU,BRN,Burnside,-34.56,148.4
AUBRO,AU,BRO,Brighton,-35.01,138.31
AUBRP,AU,BRP,Burrup,-20.34,116.48
AUBRQ,AU,BRQ,Brooweena,-25.36,152.16
AUBRR,AU,BRR,Berrys Creek,-38.25,146.04
AUBRS,AU,BRS,Braeside,-37.59,145.07
AUBRT,AU,BRT,Bathurst Island,-33.41,149.58
AUBRU,AU,BRU,Brunswich,-37.46,144.57
AUBRW,AU,BRW,Brigalow,-26.51,150.47
AUBSA,AU,BSA,Brighton-Le-Sands,-33.57,151.09
AUBSH,AU,BSH,Bass Hill,-33.58,151
AUBSJ,AU,BSJ,Bairnsdale,-37.82,147.63
AUBTB,AU,BTB,Botany Bay,-33.98,151.18
AUBTD,AU,BTD,Brunette Downs,-18.63,135.94
AUBTN,AU,BTN,Thebarton,-34.55,138.34
AUBTO,AU,BTO,Batlow,-35.31,148.08
AUBTT,AU,BTT,Balcatta,-31.51,115.51
AUBTV,AU,BTV,Brighton,-37.55,145
AUBTX,AU,BTX,Betoota,,
AUBUA,AU,BUA,Buronga,-34.01,142.11
AUBUB,AU,BUB,Bateau Bay,-33.22,151.29
AUBUC,AU,BUC,Burketown,-17.44,139.32
AUBUL,AU,BUL,Bulli,-34.18,150.55
AUBUN,AU,BUN,Bundoora,-37.41,145.03
AUBUO,AU,BUO,Burton,-34.44,138.36
AUBUS,AU,BUS,Busselton,-33.64,115.34
AUBUT,AU,BUT,Beaumont,-34.56,138.39
AUBUV,AU,BUV,Buffalo Venture,,
AUBUW,AU,BUW,Burwood,-37.51,145.06
AUBUY,AU,BUY,Bunbury,-33.32,115.63
AUBVD,AU,BVD,Belvidere,-35.18,138.56
AUBVE,AU,BVE,Brookvale/Sidney,-33.45,151.16
AUBVI,AU,BVI,Birdsville,-25.89,139.35
AUBVL,AU,BVL,Brookville,-37.19,147.36
AUBVS,AU,BVS,Beverley,-34.53,138.32
AUBVV,AU,BVV,Beverford,-35.14,143.28
AUBVW,AU,BVW,Batavia Downs,,
AUBVY,AU,BVY,Beverley,-32.07,116.55
AUBVZ,AU,BVZ,Beverley Springs,,
AUBW5,AU,BW5,Blanche Town,-34.21,139.36
AUBWA,AU,BWA,Bowral,-34.28,150.25
AUBWB,AU,BWB,Barrow Island,-21,149.08
AUBWD,AU,BWD,Blackwood,-35.01,138.36
AUBWE,AU,BWE,Burwood East,-37.51,145.09
AUBWG,AU,BWG,Bowning,-34.46,148.49
AUBWI,AU,BWI,Bulwer,-27.04,153.22
AUBWK,AU,BWK,Brunswick,-37.46,144.58
AUBWL,AU,BWL,Balgowlah,-33.48,151.15
AUBWN,AU,BWN,Balwyn,-37.48,145.04
AUBWO,AU,BWO,Burswood,-31.57,115.53
AUBWQ,AU,BWQ,Brewarrina,-29.96,146.86
AUBWS,AU,BWS,Blewitts Springs,-35.1,138.36
AUBWT,AU,BWT,Burnie,-41.05,145.9
AUBWU,AU,BWU,Bankstown,-33.91,151.03
AUBWV,AU,BWV,Bowenville,-27.19,151.29
AUBWW,AU,BWW,Bowen Hills,-27.26,153.02
AUBXA,AU,BXA,Bundeena,-34.05,151.09
AUBXH,AU,BXH,Box Hill,-37.49,145.08
AUBXI,AU,BXI,Box Hill,-33.39,150.53
AUBXT,AU,BXT,Baxter,-38.12,145.09
AUBYA,AU,BYA,Binya,-34.14,146.21
AUBYB,AU,BYB,Boyup Brook,-33.5,116.23
AUBYD,AU,BYD,Banyo,-27.22,153.04
AUBYF,AU,BYF,Byford,-32.13,116
AUBYN,AU,BYN,Baynton,-20.53,116.4
AUBYP,AU,BYP,Beauty Point,-41.15,146.82
AUBYS,AU,BYS,Bayswater,-37.5,145.19
AUBYU,AU,BYU,Boyanup,-33.29,115.43
AUBYV,AU,BYV,Bayview,-33.39,151.17
AUBYW,AU,BYW,Bayswater,-31.55,115.55
AUBYX,AU,BYX,Baniyala,-13.19,136.22
AUBYY,AU,BYY,Bushy Park,-37.52,147.02
AUBZD,AU,BZD,Balranald,-34.64,143.56
AUBZP,AU,BZP,Bizant,,
AUBZU,AU,BZU,Burraneer,-34.04,151.08
AUC6K,AU,C6K,Sackville,-33.29,150.54
AUC8M,AU,C8M,Caves Beach,-33.06,151.39
AUC8R,AU,C8R,Cromer,-34.46,139
AUCAB,AU,CAB,Caboolture,-27.05,152.57
AUCAD,AU,CAD,Carrum Downs,-38.05,145.11
AUCAH,AU,CAH,Cannon Hill,-27.28,153.05
AUCAL,AU,CAL,Caloundra Head,,
AUCAM,AU,CAM,Camberwell,-37.5,145.04
AUCAO,AU,CAO,Mount Colah,-33.41,151.07
AUCAP,AU,CAP,Capalaba,-27.31,153.11
AUCAR,AU,CAR,Carina Heights,-27.3,153.05
AUCAS,AU,CAS,Castlereagh,-33.4,150.41
AUCAV,AU,CAV,Cavan,-34.49,138.35
AUCAY,AU,CAY,Clayton,-24.56,152.22
AUCAZ,AU,CAZ,Cobar,-31.49,145.83
AUCBA,AU,CBA,Corio Bay,-38.07,144.26
AUCBC,AU,CBC,Cherrabun,-18.98,125.51
AUCBD,AU,CBD,Carabooda,-31.36,115.42
AUCBG,AU,CBG,Coburg,-37.45,144.58
AUCBI,AU,CBI,Cape Barren Island,-40.37,148.02
AUCBK,AU,CBK,Cranebrook,-33.43,150.42
